direccion,latitud,longitud
"a barrela 12, 27520 lugo, carballedo, españa",42.53844,-7.81412
"Rúa Quiroga Ballesteros 12, 27346 lugo, a cruz do incio o incio, españa",42.6556492,-7.364913
"Rúa Quiroga Ballesteros 17, 27346 lugo, a cruz do incio o incio, españa",42.6561621,-7.364192999999999
"a ermida 27514, 27514 lugo, chantada, españa",42.5477378,-7.802977299999999
"feira do monte s/n 27377, 27377 lugo, cospeito, españa",43.235591,-7.557355599999999
"27377 a feira do monte 3, 27377 lugo, cospeito, españa",43.23612,-7.55813
"27377 a feira do monte 1, 27377 lugo, cospeito, españa",43.23601,-7.55804
"avenida terra cha 72, 27377 lugo, cospeito, españa",43.23711100000001,-7.559750099999999
"Avenida de Asturias 14, 27100 lugo, a fonsagrada, españa",43.1265171,-7.0663775
"Calle Buron 2, 27100 lugo, a fonsagrada, españa",43.1261154,-7.0672368
"Avenida de Galicia 60 i, 27100 lugo, a fonsagrada, españa",43.1245317,-7.0701385
"Avenida de Galicia 34, 27100 lugo, a fonsagrada, españa",43.1256573,-7.0702225
"Avenida de Galicia 34, 27100 lugo, a fonsagrada, españa",43.1256573,-7.0702225
"Avenida de Galicia 36, 27100 lugo, a fonsagrada, españa",43.1256,-7.0701883
"calle ejercito espanol s/n, 27100 lugo, a fonsagrada, españa",43.12471,-7.068857400000001
"Calle Buron 3, 27100 lugo, a fonsagrada, españa",43.1265812,-7.0674509
"Avenida de Asturias 14, 27100 lugo, a fonsagrada, españa",43.1265171,-7.0663775
"calle coto de pedreira 0 s/n, 27100 lugo, a fonsagrada, españa",43.1196191,-7.065825100000001
"calle rois de la pena 4, 27100 lugo, a fonsagrada, españa",43.1271165,-7.0670313
"as rodas km., 27100 lugo, a fonsagrada, españa",43.12471,-7.068857400000001
"san pedro s/n, 27111 lugo, a fonsagrada, españa",43.12471,-7.068857400000001
"calle brana 4, 27112 lugo, a fonsagrada, españa",43.2165464,-7.0821162
"calle brana 10, 27112 lugo, a fonsagrada, españa",43.2165464,-7.0821162
"vilarchao s/n, 27113 lugo, a fonsagrada, españa",43.20918,-7.0112057
"curros enriquez bajo, 27377 lugo, a fonsagrada, españa",43.12471,-7.068857400000001
"calle de rois de la pena 20,  lugo, a fonsagrada, españa",43.12849720000001,-7.0667928
"a fraga 27824, 27824 lugo, xermade, españa",43.3560439,-7.8125579
"hermida 27835, 27835 lugo, xermade, españa",43.3560439,-7.8125579
"rua pousada 1, 27246 lugo, a pastoriza, españa",43.2387212,-7.3408535
"pl. maestros nunez rodriguez 3, 27286 lugo, a pastoriza, españa",43.3376028,-7.317664199999999
"a pena 27832, 27832 lugo, xermade, españa",43.3716101,-7.775798699999999
"a pobra de san xiao 3, 27360, lugo, españa",42.85951,-7.44153
"a pobra de san xiao 34, 27360 lugo, lancara, españa",42.85929,-7.44185
"a pobra de san xiao 11, 27360 lugo, lancara, españa",42.85951,-7.44153
"a pobra de san xiao 27360, 27360 lugo, lancara, españa",42.8657564,-7.4461168
"a pobra de san xiao 56, 27360 lugo, lancara, españa",42.86253,-7.44493
"ctra. villaodrid 51, 27720 lugo, a pontenova, españa",43.3388528,-7.1886682
"pol. ind. pontenova s/n, 27720 lugo, a pontenova, españa",43.358553,-7.195191299999999
"ponte 1, 27720 lugo, a pontenova, españa",43.358553,-7.195191299999999
"estr. xeral 12, 27720 lugo, a pontenova, españa",43.347347,-7.1926231
"rua san briz 0 s/n pol. ind., 27720 lugo, a pontenova, españa",43.354627,-7.193654
"avenida vilaoudriz 7, 27720 lugo, a pontenova, españa",43.33867,-7.18982
"avenida vilaoudriz 7, 27720 lugo, a pontenova, españa",43.33867,-7.18982
"pol. ind. pontenova s/n, 27720 lugo, a pontenova, españa",43.358553,-7.1951913
"estr. xeral 102, 27720 lugo, a pontenova, españa",43.3523845,-7.1912759
"avenida de taramundi 9, 27720 lugo, a pontenova, españa",43.3534295,-7.1871924
"calle puente 1, 27720 lugo, a pontenova, españa",43.358553,-7.195191299999999
"calle san friz, 27720 lugo, a pontenova, españa",43.358553,-7.195191299999999
"avenida vilaoudriz s/n, 27720 lugo, a pontenova, españa",43.3388528,-7.1886682
"san briz 17, 27720 lugo, a pontenova, españa",43.3535372,-7.1924
"carretera general 0 s/n, 27720 lugo, a pontenova, españa",43.358553,-7.195191299999999
"avenida vilaodriz 7, 27720 lugo, a pontenova, españa",43.33867,-7.18982
"aldea vilaboa 20, 27721 lugo, a pontenova, españa",43.30408,-7.1767
"lg. recendede 32, 27725 lugo, a pontenova, españa",43.34176170000001,-7.2329255
"calle mazo 14,  lugo, a pontenova, españa",43.3442123,-7.2603671
"seara 19, 27775 lugo, a seara alfoz, españa",43.52922,-7.41561
"calle seara 13, 27775 lugo, a seara alfoz, españa",43.52922,-7.41561
"san pedro de mor 16, 27775 lugo, a seara alfoz, españa",43.53007,-7.4152
"seara 9, 27775 lugo, a seara alfoz, españa",43.52922,-7.41561
"aldeguer 17, 27721 lugo, a pontenova, españa",43.32593,-7.1781
"lg.lagoa de beloy 11, 27774 lugo, alfoz, españa",43.51645,-7.44104
"san pedro de mor alfoz 16, 27775 lugo, alfoz, españa",43.5241976,-7.4248312
"bacoi s/n, 27776 lugo, alfoz, españa",43.543142,-7.391975
"bacoy, 27776 lugo, alfoz, españa",43.543142,-7.391975
"calle castro de ouro s/n, 27776 lugo, alfoz, españa",43.5283524,-7.413005299999999
"algara s/n 27375, 27375 lugo, cospeito, españa",43.2142309,-7.559642999999999
"avenida general portomene 56, 27570 lugo, antas de ulla, españa",42.782685,-7.891394
"rua nova 12, 27570 lugo, antas de ulla, españa",42.77986,-7.893226
"chantada 1, 27570 lugo, antas de ulla, españa",42.7820139,-7.8902908
"Avenida de Pontevedra 28, 27570 lugo, antas de ulla, españa",42.78229320000001,-7.892392899999999
"cno. vilane 24, 27570 lugo, antas de ulla, españa",42.7802338,-7.894600100000001
"anxos 27160, 27160, lugo, españa",42.9743742,-7.5111876
"arxemil s/n, 27168 lugo, arxemil o corgo, españa",42.9686283,-7.4465866
"27153 as lombas 6, 27153 lugo, outeiro de rei, españa",43.1022312,-7.613454999999999
"lug. doncos s/n, 27676 lugo, as nogais, españa",42.79078,-7.162864700000001
"27744 as rodrigas 3, 27744 lugo, riotorto, españa",43.34097,-7.26173
"baamonde 27370, 27370 lugo, begonte, españa",43.17632800000001,-7.756609999999999
"baamonde 2, 27371 lugo, begonte, españa",43.17439,-7.75735
"baamonde 27371, 27371 lugo, begonte, españa",43.17632800000001,-7.756609999999999
"bade 27613, 27613 lugo, sarria, españa",42.7244854,-7.530647399999999
"calle marques de racamonde s/n, 27130 lugo, baleira, españa",43.01628789999999,-7.2458736
"carretera baleira 46, 27130 lugo, baleira, españa",43.01628789999999,-7.2458736
"xermar 1, 27376 lugo, bao cospeito, españa",43.2142309,-7.559642999999999
"hermanos diaz moreno 3, 27680 lugo, baralla, españa",42.8939504,-7.2514639
"anxel fole 60, 27680 lugo, baralla, españa",42.8921426,-7.255036400000001
"Avenida Evaristo Correa Calderón 41, 27680 lugo, baralla, españa",42.8937858,-7.250607400000001
"Avenida Evaristo Correa Calderón 70, 27680 lugo, baralla, españa",42.8933079,-7.252453600000001
"lg. francos 2, 27680 lugo, baralla, españa",42.91319559999999,-7.297661700000001
"Avenida Evaristo Correa Calderón 54, 27680 lugo, baralla, españa",42.8938294,-7.2502912
"Avenida Evaristo Correa Calderón 89, 27680 lugo, baralla, españa",42.893882,-7.251148
"calle sobrado de picato 30, 27150 viveiro, viveiro, españa",43.6642649,-7.594534800000001
"bariz 27611, 27611 lugo, paradela, españa",42.7183924,-7.6088802
"27714 barredal 2, 27714 lugo, ribadeo, españa",43.4931,-7.17041
"vila s/n, 27790 lugo, barreiros, españa",43.5379565,-7.238317800000001
"vila s/n, 27790 lugo, barreiros, españa",43.5379565,-7.2383178
"lugar as eiras 22, 27790 lugo, barreiros, españa",43.5379565,-7.238317800000001
"remior 20, 27790 lugo, barreiros, españa",43.5585938,-7.211392500000001
"vila s/ n,  lugo, barreiros, españa",43.5483256,-7.237729900000001
"rua vila 39, 27790 lugo, barreiros saa, españa",43.5418287,-7.230498499999999
"bascuas 12, 27146 lugo lugo, bascuas, españa",43.0190837,-7.4443892
"bastida 27112, 27112 lugo, a fonsagrada, españa",43.1378608,-7.083125
"bat·n 3, 27864 batan, viveiro, españa",43.61576,-7.57926
"avenida madrid 1, 27640 lugo, becerrea, españa",42.8534164,-7.161917799999999
"avenida del mercado 2, 27640 lugo, becerrea, españa",42.8519874,-7.1594903
"avenida cruz roja 25, 27640 lugo, becerrea, españa",42.8513659,-7.153817699999999
"avenida cruz roja 25, 27640 lugo, becerrea, españa",42.8513659,-7.1538177
"Avenida de Navia 34, 27640 lugo, becerrea, españa",42.85675,-7.163984
"Avenida de Navia 29, 27640 lugo, becerrea, españa",42.856232,-7.1632434
"Rúa Carlos III 28, 27640 lugo, becerrea, españa",42.8547014,-7.1631803
"samuel 8, 27640 lugo, becerrea, españa",42.8512748,-7.1655579
"Rúa Carlos III 40, 27640 lugo, becerrea, españa",42.8552838,-7.163783099999999
"Rúa Carlos III 58, 27640 lugo, becerrea, españa",42.853615,-7.1624
"voltafolgueiras 50, 27640 lugo, becerrea, españa",42.8502392,-7.1584122
"avenida madrid 1, 27640 lugo, becerrea, españa",42.8534164,-7.1619178
"avenida madrid 73, 27640 lugo, becerrea, españa",42.851622,-7.159681
"Rúa Carlos III 3 3.o a, 27640 lugo, becerrea, españa",42.8533293,-7.1624018
"anovello 4, 27640 lugo, becerrea, españa",42.8509419,-7.161497
"avenida madrid 60, 27640 lugo, becerrea, españa",42.850969,-7.159855899999999
"anovello 11, 27640 lugo, becerrea, españa",42.8507559,-7.161139299999999
"avenida madrid 36, 27640 lugo, becerrea, españa",42.8524439,-7.159959799999999
"bj. 3, 27640 lugo, becerrea, españa",42.8512748,-7.1655579
"camino real 35 pacios, 27273 lugo, begonte, españa",43.0154894,-7.561479599999999
"k. 518, 27372 lugo, begonte, españa",43.1503555,-7.684327000000001
"estr. n-vi km 5184 pol.ind.de carral, 27373 lugo, begonte, españa",43.1503555,-7.684327000000001
"pol. ind. begonte 20, 27373 lugo, begonte, españa",43.149421,-7.685453
"poligono industrial 0 48, 27373 lugo, begonte, españa",43.1503555,-7.684327000000001
"carretera de damil s/n, 27373 lugo, begonte, españa",43.1503555,-7.684327000000001
"pol. ind. begonte parcela 21, 27373 lugo, begonte, españa",43.1503555,-7.684327000000001
"calle galicia 33, 27373 lugo, begonte, españa",43.1526317,-7.688828699999999
"carretera rabade villalba km , 27373 lugo, begonte, españa",43.1503555,-7.684327000000001
"calle san esteban de uriz 0 s/n, 27373 lugo, begonte, españa",43.1503555,-7.684327000000001
"poligono begonte s/n bajo prcela 40, 27373 lugo, begonte, españa",43.1503555,-7.684327000000001
"pol. ind. begonte parcela 31, 27373 lugo, begonte, españa",43.1503555,-7.684327000000001
"altide 2, 27375 lugo, begonte, españa",43.1503555,-7.684327000000001
"saavedra 43, 27375 lugo, begonte, españa",43.1503555,-7.684327000000001
"nacional vi 522 km,  lugo, begonte, españa",43.1503555,-7.684327000000001
"beltran s/n 27878, 27878 lugo, xove, españa",43.6849554,-7.5123498
"bendollo 29, 27329 lugo, quiroga, españa",42.43806499999999,-7.209112699999999
"benquerencia 12, 27792 barreiros, barreiros, españa",43.55085,-7.21132
"Alfonso Xiii 87, 27340 lugo, boveda, españa",42.6238961,-7.4844271
"poligono ind. de boveda parcelas 2 3, 27340 lugo, boveda, españa",42.6230165,-7.485171100000001
"lugo monforte 4, 27350 lugo, boveda, españa",43.01476,-7.55696
"celta 31, 27350 lugo, boveda, españa",42.656717,-7.476728
"a igrexa s/n, 27286 lugo, bretona, españa",43.33817699999999,-7.318173499999999
"b.o igrexa s/n, 27286 lugo, bretona, españa",43.33817699999999,-7.318173499999999
"bretona s/n 27286, 27286 lugo, a pastoriza, españa",43.33817699999999,-7.318173499999999
"camino de outeiro 12, 27330 lugo, brollon a pobra do brollon, españa",42.5500823,-7.394931799999999
"buratai s/n, 27140 lugo, buratai, españa",42.9891826,-7.4881814
"carretera de barbain 13, 27140 lugo lugo, buratai, españa",43.004011,-7.516757
"buratai 2, 27140 lugo lugo, buratai, españa",42.99743,-7.512174
"buratai 2, 27140 lugo lugo, buratai, españa",42.99743,-7.512174
"correo 8, 27880 lugo, burela, españa",43.6602954,-7.3611092
"galerias 137, 27880 lugo, burela, españa",43.6602954,-7.3611092
"berbes 21, 27880 lugo, burela, españa",43.6602954,-7.3611092
"rua do rio 4, 27880 lugo, burela, españa",43.658715,-7.361483
"o porto s/n, 27880 lugo, burela, españa",43.6602954,-7.3611092
"Arcadio Pardiñas 137, 27880 lugo, burela, españa",43.655885,-7.3578629
"Avenida da Mariña 14, 27880 lugo, burela, españa",43.664678,-7.364381
"Avenida Arcadio Pardiñas 131, 27880 lugo, burela, españa",43.656266,-7.358453
"calle pardo bazan 3, 27880 lugo, burela, españa",43.6602002,-7.358608800000001
"concepcion arenal 9, 27880 lugo, burela, españa",43.6633842,-7.3596964
"Avenida Arcadio Pardiñas 135, 27880 lugo, burela, españa",43.6561179,-7.3579338
"Avenida Arcadio Pardiñas 135, 27880 lugo, burela, españa",43.6561179,-7.3579338
"Avenida Arcadio Pardiñas 135, 27880 lugo, burela, españa",43.6561179,-7.3579338
"Rua Pardo Bazán 12, 27880 lugo, burela, españa",43.661171,-7.35942
"Avenida Arcadio Pardiñas 137, 27880 lugo, burela, españa",43.655885,-7.3578629
"estr. general km , 27880 lugo, burela, españa",43.6602954,-7.3611092
"pr. marina 7, 27880 lugo, burela, españa",43.660812,-7.358084
"travesia do rio 1, 27880 lugo, burela, españa",43.6602954,-7.3611092
"castelao 1, 27880 lugo, burela, españa",43.6641143,-7.365673799999999
"Avenida Arcadio Pardiñas 95, 27880 lugo, burela, españa",43.65904,-7.360772
"Avenida Arcadio Pardiñas 133, 27880 lugo, burela, españa",43.65642,-7.35841
"escolas s/n, 27880 lugo, burela, españa",43.6602954,-7.3611092
"Avenida Arcadio Pardiñas 95, 27880 lugo, burela, españa",43.65904,-7.360772
"marineiro 1, 27880 lugo, burela, españa",43.65911190000001,-7.359035
"barridal 8, 27880 lugo, burela, españa",43.6625086,-7.3652243
"concepcion arenal 34, 27880 lugo, burela, españa",43.6648916,-7.359537999999999
"Rosalia De Castro 15, 27880 lugo, burela, españa",43.660186,-7.359719
"rua eijo garay 10, 27880 lugo, burela, españa",43.66095,-7.35901
"carretera gral. 4 pomeda, 27880 lugo, burela, españa",43.47472,-7.299569999999999
"Avenida Arcadio Pardiñas 145, 27880 lugo, burela, españa",43.6552403,-7.3573792
"Avenida Arcadio Pardiñas 192, 27880 lugo, burela, españa",43.651424,-7.354373499999999
"Avenida da Mariña 22, 27880 lugo, burela, españa",43.6648097,-7.3688997
"Rua Pardo Bazán 8, 27880 lugo, burela, españa",43.660782,-7.358809
"pr. marina 7, 27880 lugo, burela, españa",43.660812,-7.358084
"rio portal-, 27880 lugo, burela, españa",43.6602954,-7.3611092
"Avenida Arcadio Pardiñas 110, 27880 lugo, burela, españa",43.6570347,-7.3593577
"rio 3, 27880 lugo, burela, españa",43.6602954,-7.3611092
"Rosalia De Castro 11, 27880 lugo, burela, españa",43.659994,-7.359506
"Avenida Arcadio Pardiñas 90, 27880 lugo, burela, españa",43.657911,-7.360053
"Avenida da Mariña 29, 27880 lugo, burela, españa",43.6662084,-7.361320200000001
"Avenida Arcadio Pardiñas 137, 27880 lugo, burela, españa",43.655885,-7.3578629
"ramon farre 6, 27880 lugo, burela, españa",43.65386609999999,-7.357463
"mar cantabrico 6, 27880 lugo, burela, españa",43.65885979999999,-7.362046800000001
"pascual veiga 71, 27880 lugo, burela, españa",43.6558916,-7.362244899999999
"Avenida Arcadio Pardiñas 137, 27880 lugo, burela, españa",43.655885,-7.3578629
"Avenida Arcadio Pardiñas 137, 27880 lugo, burela, españa",43.655885,-7.3578629
"calle iglesia 4, 27880 lugo, burela, españa",43.6602954,-7.3611092
"rua eijo garay 3, 27880 lugo, burela, españa",43.6602183,-7.358519599999999
"rio 10, 27880 lugo, burela, españa",43.6602954,-7.3611092
"o rio, 27880 lugo, burela, españa",43.6602954,-7.3611092
"calle de eijo garay 26, 27880 lugo, burela, españa",43.6617048,-7.358064499999999
"Avenida da Mariña 57, 27880 lugo, burela, españa",43.657895,-7.355949
"Avenida Arcadio Pardiñas 154, 27880 lugo, burela, españa",43.654253,-7.356992
"rio 6, 27880 lugo, burela, españa",43.6602954,-7.3611092
"Avenida da Mariña 71, 27880 lugo, burela, españa",43.66409110000001,-7.357882099999999
"estacion 11, 27880 lugo, burela, españa",43.6602954,-7.3611092
"Rosalia De Castro 46, 27880 lugo, burela, españa",43.6636149,-7.361756499999999
"rua ril 2. b, 27880 lugo, burela, españa",43.652595,-7.355939200000001
"covamoura 6, 27880 lugo, burela, españa",43.66243,-7.362039999999999
"torno 10, 27880 lugo, burela, españa",43.6602954,-7.3611092
"Avenida Arcadio Pardiñas 44, 27880 lugo, burela, españa",43.6609358,-7.3627789
"ramon farre 4, 27880 lugo, burela, españa",43.6540283,-7.357416300000001
"monte castelo 2, 27880 lugo, burela, españa",43.659289,-7.358815
"pron 2, 27880 lugo, burela, españa",43.6606384,-7.367406799999999
"Avenida Arcadio Pardiñas 4, 27880 lugo, burela, españa",43.6591879,-7.361022500000001
"Avenida Arcadio Pardiñas 91, 27880 lugo, burela, españa",43.659313,-7.361016
"Avenida da Mariña 42, 27880 lugo, burela, españa",43.6660237,-7.3609796
"no58 bajo a nuestra senora del carmen, 27880 lugo, burela, españa",43.6602954,-7.3611092
"rua leandro cucurny s/n, 27880 lugo, burela, españa",43.6602954,-7.3611092
"rio 4, 27880 lugo, burela, españa",43.6602954,-7.3611092
"Avenida Arcadio Pardiñas 211, 27880 lugo, burela, españa",43.649939,-7.352661
"rua lamestra 9, 27880 lugo, burela, españa",43.6624664,-7.3603917
"cno. real 49, 27880 lugo, burela, españa",43.6531165,-7.357565399999999
"Rua Pardo Bazán 13, 27880 lugo, burela, españa",43.6658483,-7.3593551
"Rosalia De Castro 69, 27880 lugo, burela, españa",43.6635949,-7.3621268
"Arcadio Pardiñas 137, 27880 lugo, burela, españa",43.655885,-7.3578629
"pomeda 15, 27880 lugo, burela, españa",43.6657636,-7.366365099999999
"rio 4, 27880 lugo, burela, españa",43.6602954,-7.3611092
"rio 7, 27880 lugo, burela, españa",43.6602954,-7.3611092
"Rosalia De Castro 61, 27880 lugo, burela, españa",43.662863,-7.3623332
"Avenida Arcadio Pardiñas 167, 27880 lugo, burela, españa",43.6539663,-7.356065799999999
"rua manuel murguia 15, 27880 lugo, burela, españa",43.660994,-7.358244
"calle puerto berbes s/n almacen 19, 27880 lugo, burela, españa",43.6602954,-7.3611092
"calle beiramar 23, 27880 lugo, burela, españa",43.6645091,-7.3590622
"castelao 52, 27880 lugo, burela, españa",43.6655218,-7.360027000000001
"Avenida Arcadio Pardiñas 13, 27880 lugo, burela, españa",43.6637314,-7.3647601
"curros enriquez 11, 27880 lugo, burela, españa",43.6606226,-7.360114599999999
"calle castelao 57, 27880 lugo, burela, españa",43.6651584,-7.3604267
"Rosalia De Castro 34, 27880 lugo, burela, españa",43.662872,-7.361374
"Avenida Arcadio Pardiñas 145, 27880 lugo, burela, españa",43.6552403,-7.3573792
"Avenida Arcadio Pardiñas 135, 27880 lugo, burela, españa",43.6561179,-7.3579338
"Rosalia De Castro 26, 27880 lugo, burela, españa",43.66203369999999,-7.361320200000001
"Rosalia De Castro 77, 27880 lugo, burela, españa",43.66439219999999,-7.3618907
"trav. os castros 2, 27880 lugo, burela, españa",43.6602954,-7.3611092
"curros enriquez 22, 27880 lugo, burela, españa",43.6616188,-7.3582182
"lamestra 24, 27880 lugo, burela, españa",43.663729,-7.3579911
"Avenida da Mariña 68, 27880 lugo, burela, españa",43.6646016,-7.358531300000001
"berbes 16, 27880 lugo, burela, españa",43.6602954,-7.3611092
"Rosalia De Castro 13, 27880 lugo, burela, españa",43.660207,-7.359495
"Avenida Arcadio Pardiñas 54, 27880 lugo, burela, españa",43.660027,-7.361982
"Avenida Arcadio Pardiñas 107, 27880 lugo, burela, españa",43.6581004,-7.359885200000001
"marques de sargadelos 3, 27880 lugo, burela, españa",43.653612,-7.356813999999999
"ril 1, 27880 lugo, burela, españa",43.6602954,-7.3611092
"Rua Pardo Bazán 4, 27880 lugo, burela, españa",43.66026,-7.357962
"castelao 2, 27880 lugo, burela, españa",43.66425539999999,-7.365734700000001
"calle pardo bazan 14,  lugo, burela, españa",43.6613627,-7.359626800000001
"Arcadio Pardiñas 144, 27880 lugo, burela a fonsagrada, españa",43.65489,-7.35745
"calle o rio 2, 27880 lugo, burela a fonsagrada, españa",43.12471,-7.068857400000001
"calle torno 3, 27880 lugo, burela a fonsagrada, españa",43.6602954,-7.3611092
"calle pardo bazan 7, 27880 lugo, burela a fonsagrada, españa",43.6604982,-7.358876499999999
"27233 burgo 24, 27233 lugo, lugo, españa",42.968542,-7.644639199999999
"calvoso 10, 27864 calvoso, viveiro, españa",43.612902,-7.590344
"camba 27877, 27877 lugo, xove, españa",43.692159,-7.5418181
"cambra 27182, 27182 lugo, lugo, españa",42.9194119,-7.5558687
"campina-zarra 27192, 27192 lugo, lugo, españa",43.0372547,-7.5287858
"campina-zarra 27192, 27192 lugo, lugo, españa",43.0372547,-7.5287858
"campina-zarra 27192, 27192 lugo, lugo, españa",43.0372547,-7.5287858
"campoverde 7, 27549 campoverde, panton, españa",42.55557,-7.6323
"ctra. ferreira vilacha 8, 27892 lugo, cangas foz, españa",43.62947,-7.3371
"calle poligono a barrela 1, 27520 lugo, carballedo castroverde, españa",42.5209597,-7.829386200000001
"carballido 27146, 27146 lugo, lugo, españa",43.0137738,-7.474820999999999
"carretera lugo 27146, 27146, lugo, españa",43.0166244,-7.4519959
"carroceira 27740, 27740 lugo, mondonedo, españa",43.4285755,-7.3638468
"casela a diseminado 27259, 27259, lugo, españa",43.176755,-7.4056928
"casilla 27840, 27840 lugo, vilalba, españa",43.2974899,-7.6807717
"castedo 13, 27127 lugo, castedo castroverde, españa",43.03912,-7.37518
"castelo 2, 27152 castelo, outeiro de rei, españa",43.14201,-7.55699
"castillon 37, 27438 lugo, castillon panton, españa",42.5323389,-7.6361638
"castro ribeiras de lea 27260, 27260 lugo, castro de rei, españa",43.1447029,-7.517792399999999
"27260 castro ribeiras de lea 21, 27260 lugo, castro de rei, españa",43.1447029,-7.517792399999999
"27260 castro ribeiras de lea 58, 27260 lugo, castro de rei, españa",43.1447029,-7.517792399999999
"castro ribeiras de lea 27260, 27260 lugo, castro de rei, españa",43.1447029,-7.5177924
"castro ribeiras de lea 27260, 27260 lugo, castro de rei, españa",43.1447029,-7.5177924
"27260 castro ribeiras de lea 39, 27260 lugo, castro de rei, españa",43.1447029,-7.517792399999999
"27260 castro ribeiras de lea 13, 27260 lugo, castro de rei, españa",43.1447029,-7.517792399999999
"pl. maior 6, 27250 lugo, castro de rei, españa",43.207234,-7.398524
"ctra. n-iv km , 27259 lugo, castro de rei, españa",43.2086787,-7.401061299999999
"curro 115, 27259 lugo, castro de rei, españa",43.2086787,-7.401061299999999
"calle molinos s/n, 27260 lugo, castro de rei, españa",43.2086787,-7.401061299999999
"tormentosa 12, 27260 lugo, castro de rei, españa",43.1417286,-7.4910904
"rua ribeiras lea 0, 27260 lugo, castro de rei, españa",43.2086787,-7.401061299999999
"avenida terra cha 26 bajo castro ribeiras de lea,  lugo, castro de rei, españa",43.1414,-7.4933
"avenida peares 43, 27530 lugo, castro carballedo, españa",42.5312864,-7.7836751
"castro 27260, 27260 lugo, castro de rei, españa",43.2086787,-7.401061299999999
"27269 castro 10, 27269 lugo, castro de rei, españa",43.2086787,-7.401061299999999
"27269 castro 32, 27269 lugo, castro de rei, españa",43.2086787,-7.401061299999999
"27269 castro 58, 27269 lugo, castro de rei, españa",43.2086787,-7.401061299999999
"castro 27619, 27619 lugo, sarria, españa",42.7860669,-7.3894772
"Rosalia De Castro (De) 132, 27120 lugo, castroverde, españa",43.0261115,-7.3287031
"Rosalia De Castro (De) 46, 27120 lugo, castroverde, españa",43.0261115,-7.3287031
"pr. concello 2, 27120 lugo, castroverde, españa",43.029568,-7.3272582
"Rosalia De Castro (De) 106, 27120 lugo, castroverde, españa",43.0261115,-7.3287031
"calle sampayo 10, 27120 lugo, castroverde, españa",43.0261115,-7.3287031
"Rosalia De Castro (De) 49, 27120 lugo, castroverde, españa",43.0261115,-7.3287031
"calle alcalde xesta s/n, 27120 lugo, castroverde, españa",43.0261115,-7.3287031
"Rosalia De Castro (De), 27120 lugo, castroverde, españa",43.0261115,-7.3287031
"arcos de sanpelagio s/n, 27120 lugo, castroverde, españa",43.0261115,-7.3287031
"aldea sampayo s/n, 27142 lugo, castroverde, españa",43.0296285,-7.3256658
"aldea cellan de mosteiro 5, 27143 lugo, castroverde, españa",42.99316,-7.32578
"ceao 32, 27290 lugo, lugo, españa",43.06332099999999,-7.5545143
"celeiro 27863, 27863 lugo, viveiro, españa",43.6798633,-7.5883459
"celeiro 27863, 27863 lugo, viveiro, españa",43.6798633,-7.5883459
"casanova 31, 27863 lugo, celeiro viveiro, españa",43.6812079,-7.590101300000001
"casanova 32, 27863 lugo, celeiro viveiro, españa",43.6811926,-7.5900023
"grande 109, 27863 lugo, celeiro viveiro, españa",43.679397,-7.589687
"celeiro 27863, 27863 lugo, viveiro, españa",43.6798633,-7.5883459
"celeiro 27863, 27863 lugo, viveiro, españa",43.6798633,-7.5883459
"vilaquinte 4, 27659 lugo, cervantes, españa",42.902674,-6.956298
"calle san roman de cervantes s/n, 27664 lugo, cervantes, españa",42.8684099,-7.0590261
"piornedo de ancares s/n, 27664 lugo, cervantes, españa",42.8564839,-6.8758138
"daian s/n., 27888 lugo, cervo, españa",43.6838752,-7.4570675
"daian s/n., 27888 lugo, cervo, españa",43.6838752,-7.4570675
"calle dos campos 4, 27890 lugo, cervo, españa",43.69416,-7.44194
"avenida lieiro 7, 27890 lugo, cervo, españa",43.69089,-7.44614
"pol. ind. cuina s/n, 27891 lugo, cervo, españa",43.671212,-7.410357299999999
"Galicia (De) 14, 27891 lugo, cervo, españa",43.671212,-7.410357299999999
"pol. ind. cuina 118, 27891 lugo, cervo, españa",43.671212,-7.410357299999999
"pl. souto 3, 27891 lugo, cervo, españa",43.671212,-7.410357299999999
"lobeiras 14, 27891 lugo, cervo, españa",43.6688622,-7.409708200000001
"trasbar-castelo trasbar-castelo, 27891 lugo, cervo, españa",43.6637459,-7.442590699999998
"calle leiro 44, 27891 lugo, cervo, españa",43.69457,-7.45177
"espineirido no2 4, 27891 lugo, cervo, españa",43.671212,-7.410357299999999
"espineirido 24, 27891 lugo, cervo, españa",43.67865,-7.4329
"Avenida de Lugo 22, 27500 lugo, chantada, españa",42.610117,-7.768906
"rosalia de castro 2, 27500 lugo, chantada, españa",42.610665,-7.774686499999999
"calle leonardo rodriguez 6, 27500 lugo, chantada, españa",42.609232,-7.7711408
"pardo bazan 9, 27500 lugo, chantada, españa",42.6081509,-7.767223899999999
"pol. ind. acibros s/n, 27500 lugo, chantada, españa",42.6128144,-7.766118799999998
"avenida ourense 8, 27500 lugo, chantada, españa",42.6096191,-7.771998699999999
"ramon y cajal 2, 27500 lugo, chantada, españa",42.60971,-7.7696
"ramon y cajal 20, 27500 lugo, chantada, españa",42.6101515,-7.769469999999999
"avenida ourense 25, 27500 lugo, chantada, españa",42.6082238,-7.7723808
"avenida juan xxiii 17, 27500 lugo, chantada, españa",42.6092,-7.76965
"fontearcada 11, 27500 lugo, chantada, españa",42.608508,-7.768611
"poligono industrial de chantada poligono industrial de chantada, 27500 lugo, chantada, españa",42.6128144,-7.766118799999998
"calle luciano travadelo 4, 27500 lugo, chantada, españa",42.6109991,-7.7706788
"calle emilia pardo bazan 2, 27500 lugo, chantada, españa",42.6074736,-7.7680292
"Praza Santa Ana 17, 27500 lugo, chantada, españa",42.609829,-7.771149599999999
"pl. galicia 1, 27500 lugo, chantada, españa",42.609299,-7.768619
"Avenida de Lugo 97, 27500 lugo, chantada, españa",42.61259889999999,-7.7660056
"fontearcada 2, 27500 lugo, chantada, españa",42.60847520000001,-7.7689632
"Praza Santa Ana 15, 27500 lugo, chantada, españa",42.6098232,-7.771234499999999
"crta. de abral s/n, 27500 lugo, chantada, españa",42.6078592,-7.805356
"Avenida de Lugo 52, 27500 lugo, chantada, españa",42.610575,-7.766523
"calle pardo bazan 2, 27500 lugo, chantada, españa",42.6074736,-7.7680292
"a ribeira sacra 2, 27500 lugo, chantada, españa",42.6084606,-7.768165199999999
"avelino gomez ledo 8, 27500 lugo, chantada, españa",42.6097588,-7.7736712
"avenida monforte 22, 27500 lugo, chantada, españa",42.6091034,-7.769048999999999
"avenida monforte 19, 27500 lugo, chantada, españa",42.6095476,-7.7697989
"o comercio 8, 27500 lugo, chantada, españa",42.6128144,-7.766118799999998
"san salvador s/n pol. ind. chantada, 27500 lugo, chantada, españa",42.6109991,-7.7706788
"avenida monforte 7, 27500 lugo, chantada, españa",42.6092579,-7.7705977
"avenida monforte 42, 27500 lugo, chantada, españa",42.6086765,-7.7674492
"san salvador s/n pol. ind. chantada, 27500 lugo, chantada, españa",42.6109991,-7.7706788
"rua leonardo rodriguez 16, 27500 lugo, chantada, españa",42.6096301,-7.771277
"antonio lorenzana 3, 27500 lugo, chantada, españa",42.6086378,-7.769871299999999
"plaza espana 11, 27500 lugo, chantada, españa",42.60798,-7.7694736
"calle anxel gomez montero 2 baixo, 27500 lugo, chantada, españa",42.6090731,-7.769195499999999
"avenida de monforte 17, 27500 lugo, chantada, españa",42.6094914,-7.7699608
"concepcion arenal 1, 27500 lugo, chantada, españa",42.6108229,-7.775436
"ctra. orense-pereira km , 27500 lugo, chantada, españa",42.6109991,-7.7706788
"alferez baanante 20, 27500 lugo, chantada, españa",42.6106844,-7.7722747
"leonardo rodriguez 7, 27500 lugo, chantada, españa",42.609148,-7.771291
"avenida ourense 13, 27500 lugo, chantada, españa",42.6084024,-7.772387699999999
"Avenida de Lugo 158, 27500 lugo, chantada, españa",42.6172766,-7.768897699999998
"pesqueiras 1, 27515 lugo, chantada, españa",42.6109991,-7.7706788
"a airoa 3, 27516 lugo, chantada, españa",42.633673,-7.741372
"avenida de monforte 26, 27516 lugo, chantada, españa",42.6089959,-7.768857000000001
"calle torre de arcos 2, 27518 lugo, chantada, españa",42.6499477,-7.8213394
"avenida orense 24, 27500 lugo, chantada guitiriz guitiriz, españa",42.6089231,-7.7724445
"calle acivros s/n parcela a-, 27500 lugo, chantada guitiriz guitiriz, españa",42.6128144,-7.766118799999998
"calle de los hermanos taboada 24, 27516 lugo, chantada guitiriz guitiriz, españa",42.6072598,-7.766038199999999
"carretera viveiro-lugo 3, 27864 lugo, chaos viveiro, españa",43.66278,-7.60425
"conturiz castro 27160, 27160 lugo, lugo, españa",42.9743742,-7.5111876
"conturiz castro 27160, 27160 lugo, lugo, españa",42.9743742,-7.5111876
"santa cristina 10, 27377 lugo, cospeito, españa",43.2408,-7.52878
"carretera lugo 26, 27377 lugo, cospeito, españa",43.2142309,-7.559642999999999
"avenida terra cha 85, 27377 lugo, cospeito, españa",43.2383906,-7.5632972
"calle curros enriquez 0, 27377 lugo, cospeito a fonsagrada, españa",43.019811,-7.565598
"cotarelo diseminado 27765, 27765, lugo, españa",43.4558507,-7.1736385
"avenida cantarrana 29, 27861 lugo, covas, españa",43.668852,-7.605866
"rua cantarrana 8, 27861 lugo, covas, españa",43.667795,-7.604255
"b.o cruz 20, 27861 covas, viveiro, españa",43.6754925,-7.6135002
"Rúa Granxas 75, 27861 covas, viveiro viveiro, españa",43.670781,-7.608846
"Rúa Granxas 13, 27861 covas, viveiro viveiro, españa",43.671241,-7.609781
"avenida cantarrana 13, 27861 covas, viveiro viveiro, españa",43.668565,-7.603359
"Rúa Granxas 15, 27861 covas, viveiro viveiro, españa",43.671271,-7.609764
"covas 27861, 27861 viveiro, viveiro, españa",43.6754925,-7.6135002
"avenida cantarrana 26, 27861 covas, viveiro viveiro, españa",43.66916,-7.605178
"avenida cantarrana 12, 27861 covas, viveiro viveiro, españa",43.668791,-7.603471
"avenida cantarrana 15, 27861 covas, viveiro viveiro, españa",43.668601,-7.603565
"avenida cantarrana 15, 27861 covas, viveiro viveiro, españa",43.668601,-7.603565
"vicente emilio bouza basanta 3, 27861 covas, viveiro viveiro, españa",43.671896,-7.615165
"diomondi 27548, 27548 lugo, o savinao, españa",42.5941117,-7.7119699
"dompinor 27700, 27700, lugo, españa",42.6489948,-7.3559603
"dompinor 27710, 27710 lugo, ribadeo, españa",43.5494205,-7.0552218
"dompinor 27710, 27710 lugo, ribadeo, españa",43.5494205,-7.0552218
"dompinor 27710, 27710 lugo, ribadeo, españa",43.5494205,-7.0552218
"Mayor 20, 27540 lugo, escairon, españa",42.585033,-7.639349
"rosalia de castro 12, 27540 lugo, escairon, españa",42.5865042,-7.638515699999999
"avenida buenos aires 61, 27540 lugo, escairon o savinao, españa",42.58177,-7.64103
"pardo bazan 39, 27540 lugo, escairon o savinao, españa",42.58513,-7.64193
"estrada santiago km. 5,0, 27210 lugo, esperante, españa",42.9680077,-7.584655899999999
"b.o xinzo 6, 27788 lugo, espineira foz, españa",43.5408318,-7.273041099999999
"estacada 3, 27869 lugo, estacada viveiro, españa",43.6642649,-7.594534800000001
"polig. ind. de fazouro 4, 27789 lugo, fazouro, españa",43.5994664,-7.299706799999999
"fazouro 27789, 27789 lugo, foz, españa",43.5694522,-7.258041800000001
"fazouro 26, 27789 lugo, foz, españa",43.5694522,-7.258041800000001
"ferreira s/n, 27206 lugo, ferreira, españa",42.9465665,-7.820734
"orense 72, 27430 lugo, ferreira de panton, españa",42.50503,-7.62765
"27430 ferreira de panton 3, 27430, lugo, españa",42.5062892,-7.6290453
"ferreira de panton 27430, 27430 lugo, panton, españa",42.5062892,-7.6290453
"27430 ferreira de panton 1, 27430 lugo, panton, españa",42.5062892,-7.6290453
"27430 ferreira de panton 51, 27430 lugo, panton, españa",42.5062892,-7.6290453
"27430 ferreira de panton 71, 27430 lugo, panton, españa",42.5062892,-7.6290453
"27430 ferreira de panton 5, 27430 lugo, panton, españa",42.5062892,-7.6290453
"27430 ferreira de panton 17, 27430 lugo, panton, españa",42.50394,-7.6299
"27430 ferreira de panton 72, 27430 lugo, panton, españa",42.5062892,-7.6290453
"rua feiria nova 1 27770 ferreira, 27770 lugo, begonte, españa",43.54918,-7.43798
"Andres Lopez Palmeiro 24, 27770 lugo, ferreira o valadouro, españa",43.5507783,-7.440691800000001
"jose antonio ferreiro gonzalez 2, 27770 lugo, ferreira o valadouro, españa",43.5534331,-7.4423488
"Andres Lopez Palmeiro 8, 27770 lugo, ferreira o valadouro, españa",43.5497115,-7.4408998
"ferreira 27770, 27770 lugo, vilalba, españa",43.5507908,-7.4386519
"ferreiros s/n,  lugo, ferreiros, españa",42.7834197,-7.529970499999998
"ferreria 11, 27678 lugo, becerrea, españa",42.8519874,-7.1594903
"ferron 54, 27425 lugo, ferron sober, españa",42.4160437,-7.5976987
"rua fion 47, 27548 lugo, fion, españa",42.5633689,-7.6665103
"paderne s/n, 27324 lugo, folgoso do courel, españa",42.5889896,-7.1948545
"paderne de courel 24, 27324 lugo, folgoso do courel, españa",42.6589938,-7.187950099999999
"nogaredo 5, 27324 lugo, folgoso do courel, españa",42.5889896,-7.1948545
"froxan 27, 27325 lugo, folgoso do courel, españa",42.5474384,-7.251969
"calle carreira 1, 27325 lugo, folgoso do courel, españa",42.5889896,-7.1948545
"nova s/n, 27325 lugo, folgoso do courel, españa",42.5889896,-7.1948545
"fonteo 27278, 27278, lugo, españa",43.06159419999999,-7.2626464
"estr. forxan s/n, 27787 lugo, forxan foz, españa",43.5694522,-7.258041800000001
"estr. forxan 1, 27787 lugo, forxan foz, españa",43.5868144,-7.2818042
"avenida ¡lvaro cunqueiro 27, 27780 lugo, foz, españa",43.56695,-7.260409999999999
"hermanos menesianos 4, 27780 lugo, foz, españa",43.565372,-7.2614686
"otero pedrayo 1, 27780 lugo, foz, españa",43.5692078,-7.2574893
"calle de alvaro cunqueiro 15, 27780 lugo, foz, españa",43.56779849999999,-7.259680599999998
"lugo 3, 27780 lugo, foz, españa",43.5657224,-7.260607800000001
"hermanos menesianos 6, 27780 lugo, foz, españa",43.5652491,-7.261278799999999
"illa nova 17, 27780 lugo, foz, españa",43.5731507,-7.2513412
"avenida breogan 15, 27780 lugo, foz, españa",43.5742541,-7.250795999999999
"trapero pardo 22, 27780 lugo, foz, españa",43.5707428,-7.2507071
"alexandre boveda 8, 27780 lugo, foz, españa",43.5688817,-7.256702
"avenida ¡lvaro cunqueiro 19, 27780 lugo, foz, españa",43.56762,-7.259840000000001
"cmno. casas novas marzan 5, 27780 lugo, foz, españa",43.57435,-7.26616
"pascual veiga 1, 27780 lugo, foz, españa",43.5683026,-7.254720099999999
"calle eduardo pondal 5, 27780 lugo, foz, españa",43.56879,-7.25537
"rua a fiallega marzan 5, 27780 lugo, foz, españa",43.5722822,-7.2625885
"corporaciones municipales 52, 27780 lugo, foz, españa",43.5727823,-7.258837799999999
"calle alvaro cunqueiro 21, 27780 lugo, foz, españa",43.5673395,-7.2598492
"avenida marina 24, 27780 lugo, foz, españa",43.6579048,-7.356114
"porto s/n, 27780 lugo, foz, españa",43.5722822,-7.2625885
"salvador madariaga 1, 27780 lugo, foz, españa",43.5695267,-7.257562999999999
"salvador madariaga 1, 27780 lugo, foz, españa",43.5695267,-7.257563
"salvador madariaga 1, 27780 lugo, foz, españa",43.5695267,-7.257563
"salvador madariaga 1, 27780 lugo, foz, españa",43.5695267,-7.257563
"costa do castro 1 a, 27780 lugo, foz, españa",43.5668237,-7.2626728
"avenida marina 8, 27780 lugo, foz, españa",43.6644076,-7.364866099999999
"rio masma 1, 27780 lugo, foz, españa",43.5707695,-7.2519567
"avenida alvaro cunqueiro 1, 27780 lugo, foz, españa",43.5689457,-7.2584937
"avenida marina 23, 27780 lugo, foz, españa",43.6660303,-7.362058800000001
"avenida marina 40, 27780 lugo, foz, españa",43.66594,-7.36112
"eduardo pondal 17, 27780 lugo, foz, españa",43.568235,-7.254824
"eduardo pondal 30, 27780 lugo, foz, españa",43.568376,-7.255298000000001
"eduardo pondal 6, 27780 lugo, foz, españa",43.569261,-7.2571511
"lugo 19, 27780 lugo, foz, españa",43.565413,-7.2619357
"paco maanon 16, 27780 lugo, foz, españa",43.5667637,-7.258332099999999
"emilia pardo bazan 7, 27780 lugo, foz, españa",43.5723964,-7.250997600000001
"calle del trapero pardo 14, 27780 lugo, foz, españa",43.5701417,-7.251163699999999
"cervantes 7, 27780 lugo, foz, españa",43.5698295,-7.258265300000001
"otero pedrayo 3, 27780 lugo, foz, españa",43.569003,-7.257588
"avenida da marina 29, 27780 lugo, foz, españa",43.5678521,-7.258837799999999
"hermanos menesianos 4, 27780 lugo, foz, españa",43.565372,-7.2614686
"avenida alvaro cunqueiro 38, 27780 lugo, foz, españa",43.5675015,-7.260476899999999
"avenida alvaro cunqueiro 22, 27780 lugo, foz, españa",43.568659,-7.2593646
"avenida marina 23, 27780 lugo, foz, españa",43.6660303,-7.3620588
"rua costa do castro 1 loc. b timbre 25, 27780 lugo, foz, españa",43.5668237,-7.2626728
"cervantes 34, 27780 lugo, foz, españa",43.5713573,-7.2592316
"calle de eduardo pondal 20 local 1, 27780 lugo, foz, españa",43.5686061,-7.256060400000001
"avenida ¡lvaro cunqueiro 31, 27780 lugo, foz, españa",43.5667721,-7.2607223
"avenida lugo 17, 27780 lugo, foz, españa",43.56550740000001,-7.2613453
"avenida alvaro cunqueiro 21, 27780 lugo, foz, españa",43.5673395,-7.2598492
"avenida alvaro cunqueiro 21, 27780 lugo, foz, españa",43.5673395,-7.2598492
"corporaciones municipales 14, 27780 lugo, foz, españa",43.5713788,-7.256138399999999
"avenida alvaro cunqueiro 15, 27780 lugo, foz, españa",43.567826,-7.259896
"illa nova 6, 27780 lugo, foz, españa",43.57165,-7.25217
"manuel murguia 1, 27780 lugo, foz, españa",43.5694243,-7.251686899999999
"avenida alvaro cunqueiro 15, 27780 lugo, foz, españa",43.567826,-7.259896
"avenida alvaro cunqueiro 22, 27780 lugo, foz, españa",43.568659,-7.2593646
"calle ¡lvaro cunqueiro 25, 27780 lugo, foz, españa",43.5672581,-7.260437400000001
"trapero pardo 14, 27780 lugo, foz, españa",43.5701417,-7.251163699999999
"calle ril 3, 27780 lugo, foz, españa",43.5722822,-7.2625885
"otero pedrayo 7, 27780 lugo, foz, españa",43.568724,-7.257385
"avenida alvaro cunqueiro 27, 27780 lugo, foz, españa",43.56648,-7.260775
"avenida breogan 42, 27780 lugo, foz, españa",43.5746256,-7.248494500000001
"avenida da marina 47, 27780 lugo, foz, españa",43.56890629999999,-7.2583684
"avenida marina 27, 27780 lugo, foz, españa",43.6660839,-7.361805599999999
"estr. forxan s/n, 27787 lugo, foz, españa",43.5694522,-7.258041800000001
"b.o espineira 6, 27788 lugo, foz, españa",43.536926,-7.268864
"calle barrio rua , 27788 lugo, foz, españa",43.5694522,-7.258041800000001
"estr. fondas 15, 27788 lugo, foz, españa",43.5538268,-7.2646191
"calle forxan 0, 27789 lugo, foz, españa",43.5868144,-7.2818042
"calle ¡lvaro cunqueoro 21,  lugo, foz, españa",43.5673395,-7.2598492
"marzan 1,  lugo, foz, españa",43.56579050000001,-7.2604181
"frances 27372, 27372 lugo, begonte, españa",43.1503555,-7.684327000000001
"calle estrada 0, 27154 lugo, francos outeiro de rei, españa",43.1022312,-7.613454999999999
"francos 2, 27155 lugo, francos outeiro de rei, españa",42.83875,-7.57378
"franquean 27164, 27164 lugo, o corgo, españa",42.936247,-7.3769803
"fca. ascoutadas s/n, 27220 lugo, friol, españa",43.0305585,-7.7905758
"pr. ponte 2, 27220 lugo, friol, españa",43.030279,-7.794361
"o campo da torre 12, 27220 lugo, friol, españa",43.0277889,-7.787352799999999
"ramelle 4, 27228 lugo, friol, españa",43.035844,-7.823647
"friolfe 27363, 27363 lugo, o paramo, españa",42.8144379,-7.526416599999999
"friolfe 27363, 27363 lugo, o paramo, españa",42.8144379,-7.5264166
"gontan 27738, 27738 lugo, abadin, españa",43.3680744,-7.467946899999999
"guadalupe 43, 27810 guadalupe, vilalba, españa",43.290462,-7.680507
"gude 27141, 27141 lugo, lugo, españa",42.9982298,-7.435262299999999
"guillar 18, 27154 lugo, guillar outeiro de rei, españa",43.0656703,-7.6129865
"guillar 13, 27154 lugo, guillar outeiro de rei, españa",43.067017,-7.611645999999999
"robra 45, 27154 lugo, guillar outeiro de rei, españa",43.068385,-7.612268899999999
"guistilan diseminado 27867, 27867, lugo, españa",43.6214084,-7.643961099999999
"guistilan 27867, 27867 lugo, viveiro, españa",43.6642649,-7.594534800000001
"b.o sesulfe 9, 27300 lugo, guitiriz, españa",43.1827542,-7.892930000000001
"Rúa do Concello 20, 27300 lugo, guitiriz, españa",43.180615,-7.891776
"boa vecina 27, 27300 lugo, guitiriz, españa",43.1821872,-7.8977913
"Rúa do Concello 14, 27300 lugo, guitiriz, españa",43.180644,-7.89196
"Rúa do Concello 59, 27300 lugo, guitiriz, españa",43.180193,-7.888741
"Rúa do Concello 59, 27300 lugo, guitiriz, españa",43.180193,-7.888741
"san salvador de guitiriz 7, 27300 lugo, guitiriz, españa",43.1816306,-7.8922143
"calle boa vecina 28, 27300 lugo, guitiriz, españa",43.182687,-7.897188
"calle concello 9, 27300 lugo, guitiriz, españa",43.1810191,-7.893612699999999
"rua boa vecina 26, 27300 lugo, guitiriz, españa",43.182877,-7.897014
"Rúa do Concello 28, 27300 lugo, guitiriz, españa",43.180591,-7.891622
"a amizade 19, 27300 lugo, guitiriz, españa",43.1816306,-7.8922143
"rua ourense 63, 27300 lugo, guitiriz, españa",43.01504,-7.56493
"avenida o poeta diaz castro 5, 27300 lugo, guitiriz, españa",43.18413,-7.895303
"baixo 11, 27300 lugo, guitiriz, españa",43.15852,-7.85286
"mte. cova da serpe 1, 27300 lugo, guitiriz, españa",43.009875,-7.571029
"avenida da coruna 58, 27300 lugo, guitiriz, españa",43.181213,-7.8985995
"avenida coruna 29, 27300 lugo, guitiriz, españa",43.1813153,-7.897100000000001
"vial  1, 27300 lugo, guitiriz, españa",43.1816306,-7.8922143
"avenida da coruna 124, 27300 lugo, guitiriz, españa",43.1839341,-7.9039267
"avenida coruna 33, 27300 lugo, guitiriz, españa",43.181158,-7.897292
"ctra. de pardinas s/n., 27300 lugo, guitiriz, españa",43.1901413,-7.9169011
"Rúa do Concello 9, 27300 lugo, guitiriz, españa",43.180668,-7.892114
"seixo 3 san salvador 27302, 27302 lugo, guitiriz, españa",43.1990432,-7.829770399999999
"lugar la moscosa 6, 27305 lugo, guitiriz, españa",43.1659248,-7.8417109
"lg. a moreira san salvador, 27305 lugo, guitiriz, españa",43.1816306,-7.8922143
"calle alto de la moscosa 0 s/n, 27305 lugo, guitiriz, españa",43.1659248,-7.8417109
"santa cruz de grolos 8, 27183 lugo, guntin, españa",42.8811383,-7.617182799999999
"cno. real 34, 27810 lugo, guntin vilalba, españa",43.2925271,-7.6672522
"a igrexa 11, 27866, iglesia lugo, españa",43.62454,-7.5865
"27866 iglesia 17, 27866 lugo, viveiro, españa",43.65013,-7.61528
"iglesia 27866, 27866 lugo, viveiro, españa",43.6642649,-7.594534800000001
"27866 iglesia 3, 27866 lugo, viveiro, españa",43.67422,-7.61446
"lama 27614, 27614 lugo, sarria, españa",42.8463962,-7.349799
"Calle Río Neira 16, 27360 lugo, lancara, españa",43.0088459,-7.552918200000001
"Calle Río Neira 16, 27360 lugo, lancara, españa",43.0088459,-7.5529182
"pobra san juli¡n 14, 27360 lugo, lancara, españa",42.8622336,-7.4455407
"ronfe s/n, 27369 lugo, lancara, españa",42.8415661,-7.4175191
"lodeiro 14, 27861 lugo, lodeiro viveiro, españa",43.66670269999999,-7.592444299999999
"lodeiro 16, 27861 lugo, lodeiro viveiro, españa",43.6669206,-7.5923883
"27861 lodeiro 2, 27861 lugo, viveiro, españa",43.66580320000001,-7.593433999999998
"loio 1, 27611 lugo, paradela, españa",42.7887,-7.59929
"calle iglesia 2, 27751 lugo, lourenza, españa",43.4721015,-7.3005438
"rigueira s/n, 27751 lugo, lourenza, españa",43.4721015,-7.3005438
"calle montero villegas 41, 27751 lugo, lourenza, españa",43.47197,-7.2994
"calle castineiras 11, 27751 lugo, lourenza, españa",43.37661809999999,-7.8090334
"calle pousada 23, 27760 lugo, lourenza, españa",43.4812821,-7.2940644
"calle calvo sotelo 44, 27760 lugo, lourenza, españa",43.4772925,-7.298811199999999
"avenida de mondonedo 1, 27760 lugo, lourenza, españa",43.4701393,-7.2981044
"plazas 13, 27760 lugo, lourenza, españa",43.46876,-7.29811
"san adriano 9, 27750 lugo, lourenza, españa",43.42956,-7.2741
"san adriano no 21, 27750 lugo, lourenza, españa",43.42956,-7.2741
"san xurxo a pena s/n, 27751 lugo, lourenza, españa",43.4484794,-7.298774699999999
"alaxe-san jorge 4, 27765 lugo, lourenza, españa",43.4721015,-7.3005438
"Rua da Raina 1, 27001 lugo, lugo, españa",43.010318,-7.5561
"4oc 12, 27001 lugo, lugo, españa",43.0113098,-7.5558687
"Praza do Campo Castelo 25, 27001 lugo, lugo, españa",43.009586,-7.554433
"teatro 1 0, 27001 lugo, lugo, españa",43.01235,-7.55554
"Rúa Bolaño Rivadeneira 9, 27001 lugo, lugo, españa",43.013084,-7.558216
"Praza do Campo Castelo 50, 27001 lugo, lugo, españa",43.010103,-7.554052
"loc 9, 27001 lugo, lugo, españa",43.0113098,-7.5558687
"Rúa Montevideo 15, 27001 lugo, lugo, españa",43.011932,-7.560955
"rua nova 125-2o izda, 27001 lugo, lugo, españa",43.01354,-7.56039
"tineria 8, 27001 lugo, lugo, españa",43.01087,-7.55999
"Praza do Campo Castelo 10, 27001 lugo, lugo, españa",43.009269,-7.55533
"Rúa Nova 125, 27001 lugo, lugo, españa",43.0134213,-7.560757499999999
"Rua da Raina 14, 27001 lugo, lugo, españa",43.011425,-7.556253
"calle armana 17, 27001 lugo, lugo, españa",43.01054999999999,-7.557950000000001
"norias 15, 27001 lugo, lugo, españa",43.01101,-7.55421
"calle juan montes 5, 27001 lugo, lugo, españa",43.0111,-7.55518
"rua ramon y cajal 5, 27001 lugo, lugo, españa",43.011639,-7.56137
"Ronda da Muralla 58, 27001 lugo, lugo, españa",43.013447,-7.555373
"plaza fernando casas novoa 7.o b, 27001 lugo, lugo, españa",43.00903,-7.5574
"plaza fernando casas novoa 7.o b, 27001 lugo, lugo, españa",43.00903,-7.5574
"Rúa de Castelao 28, 27001 lugo, lugo, españa",43.013919,-7.554952
"Rua da Raina 12, 27001 lugo, lugo, españa",43.011344,-7.55622
"calle juan montes 10, 27001 lugo, lugo, españa",43.011036,-7.555074
"calle de los clerigos 5.o b, 27001 lugo, lugo, españa",43.00891,-7.55724
"rua xoan montes 3, 27001 lugo, lugo, españa",43.011104,-7.555368
"calle progreso 30, 27001 lugo, lugo, españa",43.011574,-7.555271
"Rúa do Progreso 30, 27001 lugo, lugo, españa",43.011574,-7.555271
"rua dos transportes 7, 27001 lugo, lugo, españa",43.045456,-7.562507
"Rúa de Quiroga Ballesteros 19, 27001 lugo, lugo, españa",43.013485,-7.559071
"Rúa de San Pedro 64, 27001 lugo, lugo, españa",43.01038,-7.55351
"a cruz 1, 27001 lugo, lugo, españa",43.01024,-7.55735
"san fernando 5, 27001 lugo, lugo, españa",43.014267,-7.558411
"mino 30, 27001 lugo, lugo, españa",43.0104484,-7.5599003
"1oa 1, 27001 lugo, lugo, españa",43.0113098,-7.5558687
"avenida coruna 10, 27001 lugo, lugo, españa",43.015112,-7.558747
"Rua da Raina 12, 27001 lugo, lugo, españa",43.011344,-7.55622
"Praza de Santo Domingo 3, 27001 lugo, lugo, españa",43.011688,-7.555828
"pr. comandante manso 7, 27001 lugo, lugo, españa",43.009596,-7.552505
"Praza de Santo Domingo 3, 27001 lugo, lugo, españa",43.011688,-7.555828
"Rúa do Progreso 30, 27001 lugo, lugo, españa",43.011574,-7.555271
"Rúa de Nicomedes Pastor Díaz 3, 27001 lugo, lugo, españa",43.012807,-7.55379
"Praza de Santo Domingo 17, 27001 lugo, lugo, españa",43.0114286,-7.557433899999999
"ramon y cajal 2, 27001 lugo, lugo, españa",43.011793,-7.561834
"calle san froilan bajo 50, 27001 lugo, lugo, españa",43.01368,-7.56011
"Rúa de San Pedro 39, 27001 lugo, lugo, españa",43.010438,-7.553376
"2oc 25, 27001 lugo, lugo, españa",43.0113098,-7.5558687
"calle norias 15, 27001 lugo, lugo, españa",43.01101,-7.55421
"Rúa Bolaño Rivadeneira 2, 27001 lugo, lugo, españa",43.013423,-7.558005
"Rúa de Castelao 78, 27001 lugo, lugo, españa",43.013699,-7.552576
"plaza espana 29, 27001 lugo, lugo, españa",42.522,-7.51212
"pr. comandante manso 11, 27001 lugo, lugo, españa",43.009567,-7.552885
"calle reina 21, 27001 lugo, lugo, españa",43.0116017,-7.5564698
"entr.izq. 13, 27001 lugo, lugo, españa",43.0113098,-7.5558687
"Praza Maior 12, 27001 lugo, lugo, españa",43.01021,-7.556933599999999
"Praza de Santo Domingo 5, 27001 lugo, lugo, españa",43.0121988,-7.555981399999999
"calle armana 17.o d, 27001 lugo, lugo, españa",43.01062,-7.55798
"clerigos 19, 27001 lugo, lugo, españa",43.0087592,-7.558065799999999
"Rúa de San Pedro 9, 27001 lugo, lugo, españa",43.0104918,-7.5547335
"1ob 27, 27001 lugo, lugo, españa",43.0113098,-7.5558687
"Rúa de San Pedro 39, 27001 lugo, lugo, españa",43.010438,-7.553376
"Rua da Raina 3, 27001 lugo, lugo, españa",43.010737,-7.55634
"Rua da Raina 3, 27001 lugo, lugo, españa",43.010737,-7.55634
"xo·n montes 1, 27001 lugo, lugo, españa",43.01094,-7.55587
"Rúa Nova 38, 27001 lugo, lugo, españa",43.01188,-7.559545
"Rúa de San Pedro 8, 27001 lugo, lugo, españa",43.010269,-7.555605
"Praza de Santo Domingo 24, 27001 lugo, lugo, españa",43.0115947,-7.5568447
"calle de san pedro 2 bajo, 27001 lugo, lugo, españa",43.01009,-7.55302
"calle san pedro 23, 27001 lugo, lugo, españa",43.010504,-7.55397
"Rúa de Quiroga Ballesteros 19, 27001 lugo, lugo, españa",43.013485,-7.559071
"Rua da Raina 109, 27001 lugo, lugo, españa",43.0117243,-7.5565959
"Praza Maior 29, 27001 lugo, lugo, españa",43.009258,-7.555666
"Ronda da Muralla 46, 27001 lugo, lugo, españa",43.012346,-7.553716
"clerigos 12, 27001 lugo, lugo, españa",43.0088664,-7.5580147
" 3, 27001 huertas, lugo, españa",42.52148,-7.51505
"Rúa de Quiroga Ballesteros 4, 27001 lugo, lugo, españa",43.012429,-7.558481
"noreas 15, 27001 lugo, lugo, españa",43.01101,-7.55421
"xoan montes 3, 27001 lugo, lugo, españa",43.011104,-7.555368
"calle ramiro rueda fernandez 18, 27001 lugo, lugo, españa",43.019131,-7.561229
"Praza do Ferrol 2, 27001 lugo, lugo, españa",43.013423,-7.558004
"Rúa de Quiroga Ballesteros 12, 27001 lugo, lugo, españa",43.012763,-7.558512
"Praza de Santo Domingo 6, 27001 lugo, lugo, españa",43.012343,-7.556004
"Praza de Santo Domingo 24, 27001 lugo, lugo, españa",43.0115947,-7.5568447
"Praza de Santo Domingo 3, 27001 lugo, lugo, españa",43.011688,-7.555828
"calle clerigos 25, 27001 lugo, lugo, españa",43.0086745,-7.558406399999999
"tte. coronel teijeiro 2, 27001 lugo, lugo, españa",43.01128,-7.55802
"Praza do Campo Castelo 31, 27001 lugo, lugo, españa",43.009722,-7.554302
"plaza comandante manso 17, 27001 lugo, lugo, españa",43.009413,-7.55338
"Travesía do Miño 6, 27001 lugo, lugo, españa",43.010197,-7.560325
"Rúa de San Pedro 9, 27001 lugo, lugo, españa",43.0104918,-7.5547335
"Rúa Nova 25, 27001 lugo, lugo, españa",43.0112458,-7.559403
"calle rivadeneira 22, 27001 lugo, lugo, españa",43.01271,-7.5597
"Rúa de San Pedro 24.o a, 27001 lugo, lugo, españa",43.01047,-7.55482
"calle san pedro 15, 27001 lugo, lugo, españa",43.0105654,-7.5542815
"Rua da Raina 21, 27001 lugo, lugo, españa",43.011501,-7.556672
"norias 30, 27001 lugo, lugo, españa",43.01111,-7.55406
"plaza de bretana 18, 27001 lugo, lugo, españa",43.006519,-7.553113
"Rúa de San Pedro 6, 27001 lugo, lugo, españa",43.010231,-7.555659
"Rúa do Conde Pallares 5, 27001 lugo, lugo, españa",43.01012,-7.55731
"calle dr. castro 20 a, 27001 lugo, lugo, españa",43.01049,-7.55704
"san fernando 5, 27001 lugo, lugo, españa",43.014267,-7.558411
"plaza campo castillo 1, 27001 lugo, lugo, españa",43.01021,-7.55835
"reina 5, 27001 lugo, lugo, españa",43.01089,-7.55641
"Ronda da Muralla 9, 27001 lugo, lugo, españa",43.009443,-7.55396
"Praza do Ferrol 6, 27001 lugo, lugo, españa",43.013783,-7.557178
"armanya 2, 27001 lugo, lugo, españa",43.011171,-7.55734
"santiago 132, 27001 lugo, lugo, españa",43.00376,-7.56247
"Rúa Bolaño Rivadeneira 22, 27001 lugo, lugo, españa",43.012742,-7.559754
"Praza de Santo Domingo 3, 27001 lugo, lugo, españa",43.011688,-7.555828
"avenida coruna 94, 27001 lugo, lugo, españa",43.017795,-7.560883
"Rúa de San Pedro 12, 27001 lugo, lugo, españa",43.010366,-7.555181
"Praza do Campo Castelo 8, 27001 lugo, lugo, españa",43.0094811,-7.555116399999999
"avenida general sanjurjo 109, 27001 lugo, lugo, españa",43.35452,-8.39743
"Rúa do Progreso 37, 27001 lugo, lugo, españa",43.011834,-7.555801
"Rúa de Castelao 16, 27001 lugo, lugo, españa",43.013447,-7.554579
"calle clerigos 7, 27001 lugo, lugo, españa",43.00874659999999,-7.5575194
"anton fraguas fraguas 1, 27001 lugo, lugo, españa",43.011299,-7.558333
"calle progreso 6, 27001 lugo, lugo, españa",43.010735,-7.554384
"plaza de espana 14, 27001 lugo, lugo, españa",43.0296884,-7.791245699999999
"calle del doctor castro 24, 27001 lugo, lugo, españa",43.01053,-7.55714
"Rúa Montevideo 12, 27001 lugo, lugo, españa",43.012413,-7.560983
"calle del progreso 27, 27001 lugo, lugo, españa",43.011388,-7.555342
"Praza de Santo Domingo 2, 27001 lugo, lugo, españa",43.01168,-7.555995
"mino 32, 27001 lugo, lugo, españa",43.0104498,-7.5600305
"lopo lias 3, 27001 lugo, lugo, españa",43.013378,-7.55374
"calle reina 1, 27001 lugo, lugo, españa",43.0102765,-7.5560803
"Rúa Montevideo 6, 27001 lugo, lugo, españa",43.012524,-7.56057
"Rua da Raina 7, 27001 lugo, lugo, españa",43.011066,-7.55642
"Rúa Bolaño Rivadeneira 23, 27001 lugo, lugo, españa",43.0126571,-7.559555400000001
"Praza de Santo Domingo 18, 27001 lugo, lugo, españa",43.0111741,-7.5573501
"Rúa de Quiroga Ballesteros 19, 27001 lugo, lugo, españa",43.013485,-7.559071
"Rúa San Marcos 17, 27001 lugo, lugo, españa",43.01296929999999,-7.557206600000001
"pr. campo 1 bis, 27001 lugo, lugo, españa",43.010151,-7.558378799999999
"Ronda da Muralla 9, 27001 lugo, lugo, españa",43.009443,-7.55396
"Ronda da Muralla 9, 27001 lugo, lugo, españa",43.009443,-7.55396
"calle armanya 17, 27001 lugo, lugo, españa",43.01054999999999,-7.557950000000001
"Praza Maior 30, 27001 lugo, lugo, españa",43.009258,-7.555666
"Rúa San Marcos 9, 27001 lugo, lugo, españa",43.0127345,-7.557004699999999
"Praza Maior 36, 27001 lugo, lugo, españa",43.009782,-7.555378
"Rúa do Progreso 40, 27001 lugo, lugo, españa",43.011791,-7.555528
"Rúa do Teatro 3, 27001 lugo, lugo, españa",43.012487,-7.555674
"calle froilan 44, 27001 lugo, lugo, españa",43.01377,-7.55985
"Praza do Campo Castelo 22, 27001 lugo, lugo, españa",43.009485,-7.554595
"Praza Maior 6, 27001 lugo, lugo, españa",43.010139,-7.556544
"lopo lias 2- 2, 27001 lugo, lugo, españa",43.0135263,-7.5533113
"Rúa Bolaño Rivadeneira 20, 27001 lugo, lugo, españa",43.012807,-7.559589
"Rúa Nova 34, 27001 lugo, lugo, españa",43.01179,-7.559506
"san froilan 17, 27001 lugo, lugo, españa",43.013704,-7.559758
"Rúa de Nicomedes Pastor Díaz 6, 27001 lugo, lugo, españa",43.012807,-7.553372
"Rúa Nova 8, 27001 lugo, lugo, españa",43.010495,-7.5587681
"Rúa Nova 114, 27001 lugo, lugo, españa",43.0136381,-7.5603342
"manuel amor meilan 17, 27001 lugo, lugo, españa",43.013081,-7.559929
"teatro 1 0, 27001 lugo, lugo, españa",43.01235,-7.55554
"Rúa do Conde Pallares 2, 27001 lugo, lugo, españa",43.01015,-7.55727
"castelo de abaixo 85, 27001 lugo, lugo, españa",43.0113098,-7.5558687
"Rúa de Quiroga Ballesteros 1, 27001 lugo, lugo, españa",43.01180230000001,-7.558267000000001
"calle raina 21, 27001 lugo, lugo, españa",43.0115,-7.55667
"Rua da Raina 23, 27001 lugo, lugo, españa",43.011683,-7.556597
"Rúa de San Pedro 25, 27001 lugo, lugo, españa",43.010595,-7.553526
"Rúa Montevideo 12, 27001 lugo, lugo, españa",43.012413,-7.560983
"san froilan 6, 27001 lugo, lugo, españa",43.014226,-7.558549
"Rúa do Conde Pallares 14, 27001 lugo, lugo, españa",43.010674,-7.557247
"Rúa Nova 125, 27001 lugo, lugo, españa",43.0134213,-7.5607575
"Rúa de San Pedro 13, 27001 lugo, lugo, españa",43.010735,-7.554384
"Ronda da Muralla 5, 27001 lugo, lugo, españa",43.009105,-7.553813
"reina 21, 27001 lugo, lugo, españa",43.0115,-7.55667
"Rúa do Progreso 37, 27001 lugo, lugo, españa",43.011834,-7.555801
"Praza de Santo Domingo 5, 27001 lugo, lugo, españa",43.0121988,-7.5559814
"Rúa Nova 109, 27001 lugo, lugo, españa",43.01321799999999,-7.560592000000001
"plaza mayor 22, 27001 lugo, lugo, españa",43.009028,-7.557395
"Praza do Ferrol 6, 27001 lugo, lugo, españa",43.013783,-7.557178
"calle del obispo aguirre 4, 27001 lugo, lugo, españa",43.008755,-7.556937
"Rúa Montevideo 6, 27001 lugo, lugo, españa",43.012524,-7.56057
"Praza do Campo Castelo 26, 27001 lugo, lugo, españa",43.00962,-7.554376
"Ronda da Muralla 34, 27001 lugo, lugo, españa",43.011542,-7.553063
"Ronda da Muralla 34, 27001 lugo, lugo, españa",43.011542,-7.553063
"galerias 2, 27001 lugo, lugo, españa",43.0113098,-7.5558687
"musico gustavo freire 1, 27001 lugo, lugo, españa",43.011199,-7.557059
"Praza Maior 20, 27001 lugo, lugo, españa",43.0092074,-7.5571173
"Rúa Nova 41, 27001 lugo, lugo, españa",43.0116006,-7.559603999999999
"Praza Maior 20, 27001 lugo, lugo, españa",43.0092074,-7.5571173
"Rúa Nova 76, 27001 lugo, lugo, españa",43.0127688,-7.559921500000001
"Praza de Santo Domingo 24, 27001 lugo, lugo, españa",43.0115947,-7.5568447
"Praza Maior 31, 27001 lugo, lugo, españa",43.009574,-7.555599
"Rúa Montevideo 7, 27001 lugo, lugo, españa",43.012321,-7.560497
"Ronda da Muralla 5, 27001 lugo, lugo, españa",43.009105,-7.553813
"Praza do Campo Castelo 22, 27001 lugo, lugo, españa",43.009485,-7.554595
"Rúa de Quiroga Ballesteros 4, 27001 lugo, lugo, españa",43.012429,-7.558481
"calle san pedro 13, 27001 lugo, lugo, españa",43.010735,-7.554384
"calle san pedro 13, 27001 lugo, lugo, españa",43.010735,-7.554384
"Praza de Santo Domingo 24.o b, 27001 lugo, lugo, españa",43.0115947,-7.5568447
"1oc 1, 27001 lugo, lugo, españa",43.0113098,-7.5558687
"Rúa do Progreso 37, 27001 lugo, lugo, españa",43.011834,-7.555801
"Praza do Campo Castelo 9, 27001 lugo, lugo, españa",43.009345,-7.555425
"Rúa de Castelao 48, 27001 lugo, lugo, españa",43.014028,-7.554173
"rua san froilan 24, 27001 lugo, lugo, españa",43.0140323,-7.5591903
"rua san froilan 24, 27001 lugo, lugo, españa",43.0140323,-7.5591903
"Rúa de Quiroga Ballesteros 2, 27001 lugo, lugo, españa",43.012445,-7.558334
"Rúa de Nicomedes Pastor Díaz 35, 27001 lugo, lugo, españa",43.013727,-7.551752
"Rúa Nova 19, 27001 lugo, lugo, españa",43.011017,-7.5591534
"2oc 5, 27001 lugo, lugo, españa",43.0113098,-7.5558687
"Rúa de Nicomedes Pastor Díaz 18, 27001 lugo, lugo, españa",43.01318,-7.552512
"Praza Maior 27, 27001 lugo, lugo, españa",43.009258,-7.555666
"Rua da Raina 12, 27001 lugo, lugo, españa",43.011344,-7.55622
"xoan montes 6, 27001 lugo, lugo, españa",43.010842,-7.555211
"calle san pedro 25, 27001 lugo, lugo, españa",43.010595,-7.553526
"xoan montes 6, 27001 lugo, lugo, españa",43.010842,-7.555211
"Praza do Campo Castelo 33, 27001 lugo, lugo, españa",43.009722,-7.554302
"Praza de Santo Domingo 3, 27001 lugo, lugo, españa",43.011688,-7.555828
"Rúa de Quiroga Ballesteros 10, 27001 lugo, lugo, españa",43.0127623,-7.558450599999999
"calle conde 61, 27001 lugo, lugo, españa",43.017406,-7.557469
"Rúa do Progreso 6, 27001 lugo, lugo, españa",43.010735,-7.554384
"Rúa do Progreso 33, 27001 lugo, lugo, españa",43.011581,-7.555539
"1oa 14, 27001 lugo, lugo, españa",43.0113098,-7.5558687
"calle bon xesus 6, 27001 lugo, lugo, españa",43.0094656,-7.558402800000001
"Rúa San Marcos 5, 27001 lugo, lugo, españa",43.0120861,-7.556491599999999
"Rúa de San Pedro 15, 27001 lugo, lugo, españa",43.0105654,-7.5542815
"Rúa do Teatro 10, 27001 lugo, lugo, españa",43.012532,-7.55509
"Rua Primavera 21, 27002 lugo, lugo, españa",43.010213,-7.549756
"avenida camellas 65, 27002 lugo, lugo, españa",43.0097384,-7.5567582
"calle montero rios 65, 27002 lugo, lugo, españa",43.013284,-7.551164
"Rúa Cidade de Vigo 7, 27002 lugo, lugo, españa",43.008914,-7.553537
"Rúa Ramón Montenegro 18, 27002 lugo, lugo, españa",43.009177,-7.5502
"Rúa Montero Ríos 69, 27002 lugo, lugo, españa",43.01352,-7.551027
"Rúa Cidade de Vigo 11.o, 27002 lugo, lugo, españa",43.008786,-7.553085
"Rúa Vilalba 7, 27002 lugo, lugo, españa",43.007999,-7.556971
"calle obispo aguirre  24, 27002 lugo, lugo, españa",43.007656,-7.556553
"escocia 3, 27002 lugo, lugo, españa",43.0027281,-7.5548952
"Rúa Carril dos Loureiros 11, 27002 lugo, lugo, españa",43.0078831,-7.557730299999998
"Rúa Alfonso X o Sabio 11, 27002 lugo, lugo, españa",42.995286,-7.554572
"Rúa Bispo Doutor Balanzá 4, 27002 lugo, lugo, españa",43.008874,-7.551238
"plaza de augas ferreas 2, 27002 lugo, lugo, españa",42.997908,-7.54889
"galerias pimentel 1, 27002 lugo, lugo, españa",43.0097384,-7.5567582
"rda. as fontinas 278, 27002 lugo, lugo, españa",43.003328,-7.54607
"Rúa San Roque 69, 27002 lugo, lugo, españa",43.008023,-7.551539
"Rúa Ramón Montenegro 3, 27002 lugo, lugo, españa",43.009436,-7.550784
"dr. fleming 5, 27002 lugo, lugo, españa",43.005997,-7.554839
"Rúa de Salvador Madariaga 1, 27002 lugo, lugo, españa",43.006357,-7.555616
"rda. as fontinas 176, 27002 lugo, lugo, españa",43.007098,-7.549256
"rda. as fontinas 198, 27002 lugo, lugo, españa",43.005932,-7.54872
"plaza de las illas 9, 27002 lugo, lugo, españa",43.0024974,-7.5407625
"Rúa San Roque 85, 27002 lugo, lugo, españa",43.007467,-7.551388
"artes 18, 27002 lugo, lugo, españa",42.99659,-7.54712
"Rúa do Doutor Fleming 8, 27002 lugo, lugo, españa",43.005919,-7.554555
"1od 15, 27002 lugo, lugo, españa",43.0097384,-7.5567582
"Rúa Pintor Corredoira 5, 27002 centro, lugo, españa",43.00402,-7.555623
"Rúa Montero Ríos 65, 27002 lugo, lugo, españa",43.013284,-7.551164
"Carril dos Indios 6, 27002 lugo, lugo, españa",43.010708,-7.549583
"calle de la marina espanola 27, 27002 lugo, lugo, españa",43.003458,-7.552106
"calle angel lopez perez 12 l, 27002 lugo, lugo, españa",43.007714,-7.556178
"Rúa do Doutor Rafael de Vega 14, 27002 lugo, lugo, españa",43.013285,-7.552267
"rda. as fontinas 212, 27002 lugo, lugo, españa",43.005187,-7.547787
"Ronda das Fontiñas 97, 27002 lugo, lugo, españa",43.00981,-7.548265
"reina 14, 27002 lugo, lugo, españa",43.01142,-7.55626
"Rúa Montero Ríos 14, 27002 lugo, lugo, españa",43.011399,-7.551986
"calle de galicia 39, 27002 lugo, lugo, españa",43.005064,-7.552178
"Rúa San Roque 177, 27002 lugo, lugo, españa",43.003386,-7.550149
"Rúa San Roque 66, 27002 lugo, lugo, españa",43.0067124,-7.551519300000001
"Rúa San Roque 125, 27002 lugo, lugo, españa",43.005159,-7.55086
"Avenida de Madrid 187, 27002 lugo, lugo, españa",42.994276,-7.54176
"Rua San Roque 94, 27002 lugo, lugo, españa",43.0059488,-7.551233799999999
"Rúa Soto Freire 7, 27002 lugo, lugo, españa",43.00779,-7.553619999999999
"agro da torna 8, 27002 lugo, lugo, españa",42.9958733,-7.554453799999999
"Rúa Cidade de Vigo 7, 27002 lugo, lugo, españa",43.008914,-7.553537
"don garcia 81, 27002 lugo, lugo, españa",43.00299,-7.54737
"Praza da Constitucion 1, 27002 lugo, lugo, españa",43.0083428,-7.553921799999999
"pl. augas ferreas 2, 27002 lugo, lugo, españa",42.997908,-7.54889
"din·n 17, 27002 lugo, lugo, españa",43.0097384,-7.5567582
"Rúa do Doutor Rafael de Vega 4, 27002 lugo, lugo, españa",43.012534,-7.551405
"Avenida de Madrid 31, 27002 lugo, lugo, españa",43.000998,-7.548932
"edificio estacion de autobuses s/n, 27002 lugo, lugo, españa",43.0097384,-7.5567582
"calle alcalde anxel lopez perez s/n estacion de autobuses plt. 2, 27002 lugo, lugo, españa",43.0011444,-7.5084806
"barro tolda de castela 45, 27002 lugo, lugo, españa",43.0039514,-7.564929900000001
"dr. fleming 8, 27002 lugo, lugo, españa",43.005919,-7.554555
"Rúa Veterinario Rof Codina 22, 27002 lugo, lugo, españa",43.00195,-7.54564
"plaza augas ferreas 8 3, 27002 lugo, lugo, españa",42.9974976,-7.5471926
"Avenida de Ramón Ferreiro 21, 27002 lugo, lugo, españa",43.005036,-7.553951
"Ronda das Fontiñas 127, 27002 lugo, lugo, españa",43.008392,-7.548268
"Praza de Bretaña 17, 27002 lugo, lugo, españa",43.0064471,-7.5531123
"Estrada da Granxa 26, 27002 lugo, lugo, españa",42.99618,-7.55019
"Rúa Vilalba 6, 27002 lugo, lugo, españa",43.00792,-7.5571173
"rda. fingoi 181, 27002 lugo, lugo, españa",43.001796,-7.556559
"Rúa San Roque 107, 27002 lugo, lugo, españa",43.005926,-7.550962
"Rúa Laxeiro 6, 27002 lugo, lugo, españa",43.00321,-7.548616
"3ob 108, 27002 lugo, lugo, españa",43.0097384,-7.5567582
"Rúa Montero Ríos 12, 27002 lugo, lugo, españa",43.01132,-7.552068
"Avenida de Ramón Ferreiro 18, 27002 lugo, lugo, españa",43.004211,-7.554507
"don garcia 21, 27002 lugo, lugo, españa",43.00459,-7.5494
"rda. as fontinas 238, 27002 lugo, lugo, españa",43.004444,-7.546686
"Avenida de Madrid 37, 27002 lugo, lugo, españa",43.000872,-7.548585
"Rúa San Roque 89, 27002 lugo, lugo, españa",43.007261,-7.551339
"cedron del valle 32, 27002 lugo, lugo, españa",43.00727,-7.56001
"Estrada da Granxa 13, 27002 lugo, lugo, españa",42.996999,-7.55003
"Rúa Montero Ríos 16, 27002 lugo, lugo, españa",43.011511,-7.551889
"Rúa San Roque 38, 27002 lugo, lugo, españa",43.008748,-7.552148
"enriqueta otero 4, 27002 lugo, lugo, españa",42.998239,-7.548599
" 5, 27002 dinan, lugo, españa",43.00761,-7.55292
"Rúa Alfonso X o Sabio 35, 27002 lugo, lugo, españa",43.01245,-7.56466
"Rúa de Ramón Montenegro 32, 27002 lugo, lugo, españa",43.00882,-7.549357
"o trevo 17, 27002 lugo, lugo, españa",43.00073,-7.55232
"xeneral tella 2, 27002 lugo, lugo, españa",43.007425,-7.559384
"Ronda das Mercedes 50, 27002 lugo, lugo, españa",43.001116,-7.545324
"Rúa Pintor Corredoira 1, 27002 lugo, lugo, españa",43.004731,-7.555471
"rua pintor laxeiro 11, 27002 lugo, lugo, españa",43.003843,-7.548573
"calle montero rios 21, 27002 lugo, lugo, españa",43.011515,-7.551987
"marina espanola 27, 27002 lugo, lugo, españa",43.003458,-7.552106
"Avenida Alcalde Anxo Lopez Perez 12, 27002 lugo, lugo, españa",43.007714,-7.556178
"Avenida Alcalde Anxo Lopez Perez 12, 27002 lugo, lugo, españa",43.007714,-7.556178
"calle de armorica 33, 27002 lugo, lugo, españa",43.00279159999999,-7.554137399999999
"Rúa Carril dos Loureiros 7, 27002 lugo, lugo, españa",43.008077,-7.557861
"baixo 7, 27002 lugo, lugo, españa",43.0108795,-7.564547699999999
"Ronda das Fontiñas 93, 27002 lugo, lugo, españa",43.010217,-7.54812
"calle del veterinario rof codina 9 esquina ronda fontinas, 27002 lugo, lugo, españa",43.002215,-7.545685
"codina 46, 27002 lugo, lugo, españa",43.0097384,-7.5567582
"Avenida de Magoi 118, 27002 lugo, lugo, españa",42.9947893,-7.552617799999999
"rua aviacion espanola 37, 27002 lugo, lugo, españa",42.9980947,-7.553583199999999
"ribadeo 6, 27002 lugo, lugo, españa",43.00729,-7.558389999999998
"avenida a coruna 104, 27002 lugo, lugo, españa",43.018073,-7.561109
"rda. as fontinas 16, 27002 lugo, lugo, españa",43.013451,-7.550195
"calle montero rios 66, 27002 lugo, lugo, españa",43.013058,-7.550789
"Avenida de Madrid 47, 27002 lugo, lugo, españa",43.00052,-7.548474
"Ronda Xose Castiñeira (musico) 5, 27002 lugo, lugo, españa",42.998258,-7.54979
"Rúa San Roque 4, 27002 lugo, lugo, españa",43.009964,-7.553111
"Avenida de Madrid 42, 27002 lugo, lugo, españa",42.990851,-7.537568
"rda. as fontinas 168, 27002 lugo, lugo, españa",43.007098,-7.549256
"Rúa Vilalba 19, 27002 lugo, lugo, españa",43.007656,-7.556553
"Ronda das Mercedes 19, 27002 lugo, lugo, españa",43.000455,-7.547273
"Ronda das Mercedes 19, 27002 lugo, lugo, españa",43.000455,-7.547273
"nubeiro 2, 27002 lugo, lugo, españa",43.002858,-7.547043
"Rúa Cidade de Vigo 10, 27002 lugo, lugo, españa",43.009465,-7.553669
"Rúa do Bispo Aguirre 1, 27002 lugo, lugo, españa",43.00842,-7.556512
"calle rey don garcia 74, 27002 lugo, lugo, españa",43.002896,-7.547984
"rda. fingoy 107, 27002 lugo, lugo, españa",42.9972729,-7.556525499999999
"Rúa San Roque 175, 27002 lugo, lugo, españa",43.003537,-7.550313
"Rúa Pena do Rei 4, 27002 lugo, lugo, españa",43.004591,-7.550299
"Rúa Galicia 9, 27002 lugo, lugo, españa",43.005941,-7.552865
"rda. as fontinas 290, 27002 lugo, lugo, españa",43.002834,-7.545819
"enriqueta otero 3, 27002 lugo, lugo, españa",42.998529,-7.548249
"Avenida Alcalde Anxo Lopez Perez 12, 27002 lugo, lugo, españa",43.007714,-7.556178
"Ronda das Fontiñas 222, 27002 lugo, lugo, españa",43.005028,-7.547601
"calle martin ferreiro 3, 27002 lugo, lugo, españa",43.005892,-7.555297299999999
"Rúa San Roque 132, 27002 lugo, lugo, españa",43.004914,-7.55086
"calle rafael de la vega 8.o a, 27002 lugo, lugo, españa",43.01253,-7.5514
"calle de ribadeo 12, 27002 lugo, lugo, españa",43.0072244,-7.5585564
"enriqueta otero 3, 27002 lugo, lugo, españa",42.998529,-7.548249
"Ronda das Fontiñas 23, 27002 lugo, lugo, españa",43.013251,-7.549175
"Rúa de Salvador Madariaga 1, 27002 lugo, lugo, españa",43.006357,-7.555616
"Ronda das Fontiñas 129, 27002 lugo, lugo, españa",43.007954,-7.548374
"Rua Dinan 5, 27002 lugo, lugo, españa",43.007606,-7.552915
"rda. as fontinas 56, 27002 lugo, lugo, españa",43.011831,-7.549691
"Praza da Liberdade 18, 27002 lugo, lugo, españa",43.003875,-7.551676
"pr. augas ferreas 1, 27002 lugo, lugo, españa",42.998239,-7.548599
"calle villalba 6, 27002 lugo, lugo, españa",43.00788,-7.55721
"Rúa San Roque 119, 27002 lugo, lugo, españa",43.005553,-7.550657
"Campos Novos 10, 27002 lugo, lugo, españa",42.9946,-7.552051
"montiron 63, 27002 lugo, lugo, españa",43.00251220000001,-7.547594600000001
"Rúa Alfonso X o Sabio 4, 27002 lugo, lugo, españa",42.996745,-7.555013
"Rúa Alfonso X o Sabio 4, 27002 lugo, lugo, españa",42.996745,-7.555013
"calle montero rios 37, 27002 lugo, lugo, españa",43.012534,-7.551405
"rua das cantigas e frores 33, 27002 lugo, lugo, españa",42.9957,-7.549092
"cantigas e flores 33, 27002 lugo, lugo, españa",42.9957,-7.549092
"Rúa San Roque 157, 27002 lugo, lugo, españa",43.004176,-7.550417
"Rúa Pintor Corredoira 13, 27002 lugo, lugo, españa",43.0037283,-7.5567271
"rua c·ntigas e frores 6, 27002 lugo, lugo, españa",42.99629,-7.54865
"Avenida de Madrid 38, 27002 lugo, lugo, españa",42.990859,-7.537618
"Rúa Alfonso X o Sabio, 27002 lugo, lugo, españa",43.0097384,-7.5567582
"armorica 104, 27002 lugo, lugo, españa",43.0000529,-7.5529718
"cerca hospital lucus augusti 145, 27002 lugo, lugo, españa",43.0097384,-7.5567582
"acena de olga 11, 27002 lugo, lugo, españa",42.99976,-7.55897
"calle reina 1, 27002 lugo, lugo, españa",43.0102765,-7.5560803
"Ronda da Muralla 52, 27002 lugo, lugo, españa",43.013012,-7.554069
"calle conde pallares 2, 27002 lugo, lugo, españa",43.0101484,-7.557159599999999
"rda. as fontinas 57, 27002 lugo, lugo, españa",43.011769,-7.549037
"Rúa Cidade de Vigo 10, 27002 lugo, lugo, españa",43.009465,-7.553669
"Ronda da Muralla 172, 27002 lugo, lugo, españa",43.008461,-7.559238
"Carril das Encrucilladas 3, 27002 lugo, lugo, españa",43.0062939,-7.5503848
"Rúa Rei Don García 80, 27002 lugo, lugo, españa",43.002723,-7.547861
"Avenida de Madrid 19, 27002 lugo, lugo, españa",43.001356,-7.549282
"Ronda da Muralla 46, 27002 lugo, lugo, españa",43.012346,-7.553716
"calle obispo aguirre 3, 27002 lugo, lugo, españa",43.008273,-7.55642
"Rúa San Roque 173, 27002 lugo, lugo, españa",43.003644,-7.550262
"rda. as fontinas 222, 27002 lugo, lugo, españa",43.005028,-7.547601
"calle muralla 193, 27002 lugo, lugo, españa",43.00834,-7.55756
"maria castana 5, 27002 lugo, lugo, españa",43.00439,-7.55117
"montiron 54, 27002 lugo, lugo, españa",43.00179199999999,-7.546494300000001
"reina 7, 27002 lugo, lugo, españa",43.01107,-7.55642
"rda. as fontinas 28, 27002 lugo, lugo, españa",43.013143,-7.549791
"pintor laxeiro 6, 27002 lugo, lugo, españa",43.00321,-7.548616
"artes 18, 27002 lugo, lugo, españa",42.99659,-7.54712
"Rúa Vilalba 6, 27002 lugo, lugo, españa",43.00792,-7.5571173
"Ronda da Muralla 40, 27002 lugo, lugo, españa",43.010222,-7.561023
"Ronda da Muralla 42, 27002 lugo, lugo, españa",43.012006,-7.55339
"Ronda das Fontiñas 215, 27002 lugo, lugo, españa",43.005245,-7.54755
"Rúa Xose Ferro (coengo) 4, 27002 lugo, lugo, españa",43.007343,-7.550872
"Carril das Flores 16.o b, 27002 lugo, lugo, españa",43.010554,-7.552053
"Avenida de Ramón Ferreiro 21, 27002 lugo, lugo, españa",43.005036,-7.553951
"rda. as fontinas 123, 27002 lugo, lugo, españa",43.008603,-7.548222
"rda. as fontinas 205, 27002 lugo, lugo, españa",43.002355,-7.544909
"Avenida de Magoi 35, 27002 lugo, lugo, españa",42.99559,-7.55564
"xermade pol. ind. s/n, 27002 lugo, lugo, españa",43.3560439,-7.8125579
"Praza da Liberdade 10, 27002 lugo, lugo, españa",43.004086,-7.55139
"Rúa Montero Ríos 31, 27002 lugo, lugo, españa",43.012234,-7.551896
"calle rio neira 29, 27002 lugo, lugo, españa",43.0083928,-7.5523704
"pascual veiga 2, 27002 lugo, lugo, españa",43.0069908,-7.5592337
"calle obispo aguirre 3, 27002 lugo, lugo, españa",43.008273,-7.55642
"calle canovas del castillo 2 b, 27002 lugo, lugo, españa",42.99773039999999,-7.5490126
"rda. as fontinas 211, 27002 lugo, lugo, españa",43.001805,-7.544984
"Rúa San Roque 19, 27002 lugo, lugo, españa",43.009988,-7.55241
"plaza augas ferreas 12, 27002 lugo, lugo, españa",42.998104,-7.54752
"antonio roson 8, 27002 lugo, lugo, españa",42.997827,-7.54703
"Rúa Pena do Rei 5, 27002 lugo, lugo, españa",43.004991,-7.550456
"Rúa do Bispo Aguirre 1, 27002 lugo, lugo, españa",43.00842,-7.556512
"Rúa Bispo Doutor Balanzá 9, 27002 lugo, lugo, españa",43.009038,-7.550994
"rda. as fontinas 171, 27002 lugo, lugo, españa",43.00457,-7.54589
"praça pepe barreiro 1 3∞ b, 27002 lugo, lugo, españa",43.011173,-7.551409
"Rúa San Roque 55, 27002 lugo, lugo, españa",43.008479,-7.551505
"Rúa San Roque 22, 27002 lugo, lugo, españa",43.009194,-7.55223
"rua maria castana 2, 27002 lugo, lugo, españa",42.998408,-7.547888100000001
"canovas del castillo 2, 27002 lugo, lugo, españa",42.998023,-7.549916
"rda. as fontinas 39, 27002 lugo, lugo, españa",43.012562,-7.549201
"bispo ona de echave 2, 27002 lugo, lugo, españa",42.997441,-7.558525
"Rúa Alfonso X o Sabio 5, 27002 lugo, lugo, españa",42.995675,-7.554838
"calle de montero rios 16, 27002 lugo, lugo, españa",43.0115563,-7.551857099999999
"Círculo das Artes 18, 27002 lugo, lugo, españa",42.997001,-7.546909
"Ronda da Muralla 190.o, 27002 lugo, lugo, españa",43.008241,-7.557598
"Rúa Ramón Montenegro 34, 27002 lugo, lugo, españa",43.008674,-7.549281
"plaza augas ferreas 2, 27002 lugo, lugo, españa",42.997908,-7.54889
"cedron 4, 27002 del valle, lugo, españa",43.0097384,-7.5567582
"Rúa Pintor Corredoira 13, 27002 lugo, lugo, españa",43.0037283,-7.5567271
"calle de recatelo 21, 27002 lugo, lugo, españa",43.0074358,-7.5578739
"Rúa San Roque 94, 27002 lugo, lugo, españa",43.0059488,-7.551233799999999
"Ronda das Fontiñas 87, 27002 lugo, lugo, españa",43.010774,-7.548448
"carretera santiago polusa 0 s/n, 27002 lugo, lugo, españa",43.0097384,-7.5567582
"Estrada da Granxa 9 local 2, 27002 lugo, lugo, españa",42.99584,-7.54976
"Rúa Carril dos Loureiros 3, 27002 lugo, lugo, españa",43.007882,-7.558156
"Rúa Montero Ríos 8, 27002 lugo, lugo, españa",43.011123,-7.552225
"rua das costureiras parc.  19, 27002 lugo, lugo, españa",43.0097384,-7.5567582
"Rúa do Bispo Aguirre 17 1, 27002 lugo, lugo, españa",43.00766,-7.55635
"Rúa do Bispo Aguirre 17 1, 27002 lugo, lugo, españa",43.00766,-7.55635
"calle ribadeo 18, 27002 lugo, lugo, españa",43.0071524,-7.5587892
"Rúa San Roque 11, 27002 lugo, lugo, españa",43.010212,-7.552467
"Estrada da Granxa 26, 27002 lugo, lugo, españa",42.99618,-7.55019
"Rúa do Doutor Rafael de Vega 14, 27002 lugo, lugo, españa",43.013285,-7.552267
"calle dinan 21, 27002 lugo, lugo, españa",43.006974,-7.553149
"Rúa de Salvador Madariaga 8, 27002 lugo, lugo, españa",43.006219,-7.555179
"Rúa de Salvador Madariaga 1 4, 27002 lugo, lugo, españa",43.006357,-7.555616
"calle doctor fleming 1, 27002 lugo, lugo, españa",43.005997,-7.554839
"Praza do Rei 16, 27002 lugo, lugo, españa",43.0025596,-7.5501416
"rda. as fontinas 126, 27002 lugo, lugo, españa",43.009118,-7.548835
"rda. as fontinas 228, 27002 lugo, lugo, españa",43.004875,-7.54727
"calle rei don garcia 48, 27002 lugo, lugo, españa",43.003441,-7.549108
"reina 5, 27002 lugo, lugo, españa",43.01089,-7.55641
"Rúa San Roque 134, 27002 lugo, lugo, españa",43.004352,-7.550868
", 27002 lugo, lugo, españa",43.0011444,-7.5084806
"Rúa San Roque 26, 27002 lugo, lugo, españa",43.009097,-7.552184
"pr. augas ferreas 8, 27002 lugo, lugo, españa",42.9974976,-7.5471926
"calle erin 18, 27002 lugo, lugo, españa",42.9997578,-7.5495625
"codesal 1, 27002 lugo, lugo, españa",43.001774,-7.550464
"Avenida de Madrid 38, 27002 lugo, lugo, españa",42.990859,-7.537618
"Avenida de Ramón Ferreiro 21, 27002 lugo, lugo, españa",43.005036,-7.553951
"reina 13, 27002 lugo, lugo, españa",43.01121,-7.55647
"Rúa San Roque 4, 27002 lugo, lugo, españa",43.009964,-7.553111
"Rua San Roque 45, 27002 lugo, lugo, españa",43.0087278,-7.5516681
"Rúa Montero Ríos 41, 27002 lugo, lugo, españa",43.012945,-7.551306
"ramon ferreiro 22, 27002 lugo, lugo, españa",43.003631,-7.553823
"pr. bretana 22, 27002 lugo, lugo, españa",43.006807,-7.553196
"Rúa San Roque 165, 27002 lugo, lugo, españa",43.003856,-7.550606
"Rúa do Bispo Aguirre 1, 27002 lugo, lugo, españa",43.00842,-7.556512
"agro da torna 8, 27002 lugo, lugo, españa",42.9958733,-7.5544538
"armorica 64, 27002 lugo, lugo, españa",43.00210999999999,-7.553795900000001
"pl. augas ferreas 2, 27002 lugo, lugo, españa",42.997908,-7.54889
"Carril das Hortas 30, 27002 lugo, lugo, españa",43.010612,-7.551086
"rda. as fontinas 114, 27002 lugo, lugo, españa",43.009719,-7.548777
"calle de galicia 51, 27002 lugo, lugo, españa",43.004798,-7.552018
"Rúa de Salvador Madariaga 14, 27002 lugo, lugo, españa",43.006361,-7.554973
"Rua San Roque 32, 27002 lugo, lugo, españa",43.008962,-7.552151
"doctor garcia portela 15, 27002 lugo, lugo, españa",43.004521,-7.559243
"Rúa Armando Durán 38, 27002 lugo, lugo, españa",43.0039163,-7.5587673
"Avenida de Magoi 16, 27002 lugo, lugo, españa",43.001463,-7.558518
"Estrada da Granxa 29, 27002 lugo, lugo, españa",42.9954934,-7.549171100000001
"calle rio chamoso 8, 27002 lugo, lugo, españa",43.0095793,-7.5498624
"calle montero rios 45, 27002 lugo, lugo, españa",43.012945,-7.551306
"Rúa San Roque 11, 27002 lugo, lugo, españa",43.010212,-7.552467
"paxarinos 23, 27002 lugo, lugo, españa",43.010022,-7.551124
"avenida de fontinas 125, 27002 lugo, lugo, españa",43.0084379,-7.548446
"Rúa de Alcalde Jose Novo Freire 6, 27002 lugo, lugo, españa",43.001254,-7.548342
"Avenida de Madrid 27, 27002 lugo, lugo, españa",43.001099,-7.549034
"ronda del carmen 2, 27002 lugo, lugo, españa",43.0053105,-7.5633824
"Avenida de Vila Verde 27, 27002 lugo, lugo, españa",43.003908,-7.547391
"Rua San Roque 66, 27002 lugo, lugo, españa",43.0067124,-7.551519300000001
"Rúa San Roque 104, 27002 lugo, lugo, españa",43.005631,-7.551135
"Rua Dinan 7, 27002 lugo, lugo, españa",43.0074959,-7.552953699999999
"Carril das Hortas 46, 27002 lugo, lugo, españa",43.01086,-7.550401
"ribadeo 2, 27002 lugo, lugo, españa",43.0073152,-7.558112
"calle reina 18, 27002 lugo, lugo, españa",43.0115314,-7.5562285
"Avenida de Ramón Ferreiro 14, 27002 lugo, lugo, españa",43.004661,-7.554832
"Avenida de Madrid 11, 27002 lugo, lugo, españa",43.00195,-7.549882
"Rúa Vilalba 6, 27002 lugo, lugo, españa",43.00792,-7.5571173
"Rúa Vilalba 2, 27002 lugo, lugo, españa",43.0082102,-7.5573558
"Estrada da Granxa 38, 27002 lugo, lugo, españa",42.994005,-7.550211
"Rúa de Salvador Madariaga 3, 27002 lugo, lugo, españa",43.006357,-7.555616
"Ronda das Mercedes 37, 27002 lugo, lugo, españa",43.000774,-7.546527
"Rua Primavera 40, 27002 lugo, lugo, españa",43.012307,-7.550266
"Avenida de Magoi 35, 27002 lugo, lugo, españa",42.99559,-7.55564
"Avenida de Magoi 35 3, 27002 lugo, lugo, españa",42.99559,-7.55564
"rda. as fontinas 115, 27002 lugo, lugo, españa",43.008961,-7.548149
"Rúa Montero Ríos 70, 27002 lugo, lugo, españa",43.013299,-7.55055
"armorica 74, 27002 lugo, lugo, españa",43.0017426,-7.5535959
"calle doctor garcia portela 1 5o centro, 27002 lugo, lugo, españa",43.01217,-7.5516
"calle de montiron 49, 27002 lugo, lugo, españa",43.002641,-7.5483
"calle de montiron 49, 27002 lugo, lugo, españa",43.002641,-7.5483
"b.o fingoi de abaixo 1, 27002 lugo, lugo, españa",42.992961,-7.551179
"calle fingoi de abaixo 1, 27002 lugo, lugo, españa",42.993234,-7.550905
"avenida das fontinas 16, 27002 lugo, lugo, españa",43.013451,-7.550195
"rda. as fontinas 260, 27002 lugo, lugo, españa",43.003898,-7.546171
"Avenida de Magoi 80, 27002 lugo, lugo, españa",42.996756,-7.557265500000001
"rda. as fontinas 94, 27002 lugo, lugo, españa",43.010228,-7.54892
"rda. as fontinas 61, 27002 lugo, lugo, españa",43.011537,-7.548987
"Rúa Galicia 37, 27002 lugo, lugo, españa",43.005221,-7.552321
"marina espanola 14, 27002 lugo, lugo, españa",43.004537,-7.551576
"Rúa San Roque 62, 27002 lugo, lugo, españa",43.0068998,-7.551452599999999
"calle ronda fontinas 87, 27002 lugo, lugo, españa",43.0105453,-7.5484671
"poligono louzaneta s/n, 27002 lugo, lugo, españa",43.0011444,-7.5084806
"poligono louzaneta s/n, 27002 lugo, lugo, españa",43.0011444,-7.5084806
"Avenida de Magoi 69, 27002 lugo, lugo, españa",42.9949317,-7.550303199999999
"calle plaza del rey 6, 27002 lugo, lugo, españa",43.0025282,-7.549904699999999
"Avenida de Vila Verde 27, 27002 lugo, lugo, españa",43.003908,-7.547391
"calle de la marina espanola 27, 27002 lugo, lugo, españa",43.003458,-7.552106
"cno. via 31, 27002 lugo, lugo, españa",43.01165,-7.5624
"Ronda da Muralla 176, 27002 lugo, lugo, españa",43.008201,-7.559121
"Ronda da Muralla 186, 27002 lugo, lugo, españa",43.00807,-7.55822
"Rúa do Bispo Aguirre 28, 27002 lugo, lugo, españa",43.007571,-7.556513
"Avenida de Ramón Ferreiro 1, 27002 lugo, lugo, españa",43.005949,-7.555385
"cantigas e flores 6, 27002 lugo, lugo, españa",42.996351,-7.548771
"Ronda das Mercedes 2, 27002 lugo, lugo, españa",42.999855,-7.547898
"Ronda das Mercedes 15, 27002 lugo, lugo, españa",43.000348,-7.547407
"Rúa Pena do Rei 3, 27002 lugo, lugo, españa",43.004991,-7.550456
"Avenida de Madrid 38, 27002 lugo, lugo, españa",42.990859,-7.537618
"Ronda da Muralla 190, 27002 lugo, lugo, españa",43.008241,-7.557598
"Ronda da Muralla 9, 27002 lugo, lugo, españa",43.009443,-7.55396
"calle de los paxarinos 28, 27002 lugo, lugo, españa",43.00959049999999,-7.549693199999999
"Rúa Rof Carballo 1, 27002 lugo, lugo, españa",43.003908,-7.547391
"cantigas e flores 6, 27002 lugo, lugo, españa",42.996351,-7.548771
"Rúa das Hermanitas 1, 27002 lugo, lugo, españa",43.008383,-7.552043
"Ronda das Mercedes 43, 27002 lugo, lugo, españa",43.001033,-7.546205
"Ronda Xose Castiñeira (musico) 17, 27002 lugo, lugo, españa",42.99882,-7.548527
"Rúa Montero Ríos 21, 27002 lugo, lugo, españa",43.011515,-7.551987
"rda. as fontinas 105, 27002 lugo, lugo, españa",43.009236,-7.548116
"jacinto calvo senador 4, 27002 lugo, lugo, españa",43.0060926,-7.5528213
"tolda castilla 312, 27002 lugo, lugo, españa",43.0109116,-7.5576564
"Avenida de Madrid 5, 27002 lugo, lugo, españa",43.001819,-7.5497
"Avenida de Ramón Ferreiro 21, 27002 lugo, lugo, españa",43.005036,-7.553951
"c, 27002 lugo, lugo, españa",43.0097384,-7.5567582
"Ronda das Fontiñas 203.o b, 27002 lugo, lugo, españa",43.002355,-7.544909
"Ronda das Fontiñas 20, 27002 lugo, lugo, españa",43.013292,-7.550042
"Rua Ortega Y Gasset 18, 27002 lugo, lugo, españa",43.003894,-7.552126
"Rúa Pintor Corredoira 1, 27002 lugo, lugo, españa",43.004731,-7.555471
"castelo 199, 27002 lugo, lugo, españa",43.0706352,-7.546557799999999
"rda. as fontinas 97, 27002 lugo, lugo, españa",43.00981,-7.548265
"Ronda da Muralla 193, 27002 lugo, lugo, españa",43.008312,-7.556841
"calle magoi 53, 27002 lugo, lugo, españa",42.9952086,-7.5529695
"augas ferreas 12 14, 27002 lugo, lugo, españa",42.998104,-7.54752
"Rúa Montero Ríos 69, 27002 lugo, lugo, españa",43.01352,-7.551027
"don garcia s/n, 27002 lugo, lugo, españa",43.0097384,-7.5567582
"rda. as fontinas 7, 27002 lugo, lugo, españa",43.013762,-7.550379
"Avenida de Ramón Ferreiro 21, 27002 lugo, lugo, españa",43.005036,-7.553951
"Rua Primavera 40, 27002 lugo, lugo, españa",43.012307,-7.550266
"marina espanola 23, 27002 lugo, lugo, españa",43.004071,-7.551943
"Avenida de Madrid 41, 27002 lugo, lugo, españa",43.000707,-7.548794
"Rua Primavera 40, 27002 lugo, lugo, españa",43.012307,-7.550266
"rda. as fontinas 203, 27002 lugo, lugo, españa",43.002355,-7.544909
"pr. augas ferreas 12, 27002 lugo, lugo, españa",42.998104,-7.54752
"codina 29, 27002 lugo, lugo, españa",43.0097384,-7.5567582
"Praza do Rei 5, 27002 lugo, lugo, españa",43.002168,-7.5497961
"Rúa San Roque 66, 27002 lugo, lugo, españa",43.0067124,-7.5515193
"Rampa de Claudio Lopez 1, 27002 lugo, lugo, españa",43.006558,-7.55086
"calle de rei don garcia 18, 27002 lugo, lugo, españa",43.004294,-7.549919
"pr. bretana 22, 27002 lugo, lugo, españa",43.006807,-7.553196
"Rúa Pintor Corredoira 6, 27002 lugo, lugo, españa",43.0028985,-7.5577622
"maria castana 5, 27002 lugo, lugo, españa",43.00439,-7.55117
"Rua Dinan 15, 27002 lugo, lugo, españa",43.007203,-7.552888
"rua agricultura 63, 27002 lugo, lugo, españa",43.048562,-7.573186
"pr. augas ferreas 12, 27002 lugo, lugo, españa",42.998104,-7.54752
"rda. as fontinas 272, 27002 lugo, lugo, españa",43.003615,-7.54599
"padre sarmiento 10, 27002 lugo, lugo, españa",42.99899449999999,-7.552031599999999
"Rúa San Roque 38, 27002 lugo, lugo, españa",43.008748,-7.552148
"Rúa Montero Ríos 39, 27002 lugo, lugo, españa",43.012945,-7.551306
"pol. campus universitario s/n, 27002 lugo, lugo, españa",43.0097384,-7.5567582
"Rúa San Roque 157, 27002 lugo, lugo, españa",43.004176,-7.550417
"Rúa do Bispo Aguirre 34, 27002 lugo, lugo, españa",43.007392,-7.556459
"Praza do Rei 6, 27002 lugo, lugo, españa",43.002563,-7.549732
"pr. augas ferreas 8, 27002 lugo, lugo, españa",42.9974976,-7.5471926
"paxarinos 6, 27002 lugo, lugo, españa",43.0097409,-7.550906199999999
"Rúa do Bispo Aguirre 2, 27002 lugo, lugo, españa",43.008907,-7.557045
"rua diego pazos 32, 27002 lugo, lugo, españa",42.7793012,-7.411077699999999
"Rúa do Bispo Aguirre 1, 27002 lugo, lugo, españa",43.00842,-7.556512
"rda. as fontinas 216, 27002 lugo, lugo, españa",43.005187,-7.547787
"Rua Primavera 40, 27002 lugo, lugo, españa",43.012307,-7.550266
"Rúa Vilalba 6, 27002 lugo, lugo, españa",43.00792,-7.5571173
"Rúa San Roque 59, 27002 lugo, lugo, españa",43.008381,-7.55158
"rda. as fontinas 94, 27002 lugo, lugo, españa",43.010228,-7.54892
"Ronda da Muralla 40, 27002 lugo, lugo, españa",43.010222,-7.561023
"Rua Dinan 21, 27002 lugo, lugo, españa",43.006974,-7.553149
"Rúa Veterinario Rof Codina 9, 27002 lugo, lugo, españa",43.002215,-7.545685
"don garcia 56, 27002 lugo, lugo, españa",43.00327,-7.54822
"armorica 74, 27002 lugo, lugo, españa",43.0017426,-7.5535959
"Rúa Montero Ríos 70, 27002 lugo, lugo, españa",43.013299,-7.55055
"antonio roson 1, 27002 lugo, lugo, españa",43.02083,-7.56101
"pl. de la libertad 14, 27002 lugo, lugo, españa",43.004086,-7.55139
"Praza de Viana do Castelo 1, 27003 lugo, lugo, españa",43.02321,-7.566553
"Avenida da Coruña 490, 27003 lugo, lugo, españa",43.032103,-7.572505
"Rúa Angelo Colocci 29, 27003 lugo, lugo, españa",43.027306,-7.569508
"Avenida da Coruña 136, 27003 lugo, lugo, españa",43.018998,-7.56168
"pol. ind. o ceao 73, 27003 lugo, lugo, españa",43.0494964,-7.561074899999999
"Avenida de Garabolos 9, 27003 lugo, lugo, españa",43.0285859,-7.5725768
"avenida carlos azcarraga 4, 27003 lugo, lugo, españa",43.016166,-7.549964399999999
"Avenida da Coruña 302, 27003 lugo, lugo, españa",43.025198,-7.566614
"Rúa Otero Pedrayo 2, 27003 lugo, lugo, españa",43.017374,-7.560533
"poligono ceao 106, 27003 lugo, lugo, españa",43.0494964,-7.561074899999999
"Rua Otero Pedrayo Profesor 11, 27003 lugo, lugo, españa",43.017938,-7.560577
"Avenida da Coruña 21, 27003 lugo, lugo, españa",43.015315,-7.559368
"Avenida de Benigno Rivera 64, 27003 lugo, lugo, españa",43.040625,-7.571881
"Avenida de Benigno Rivera 64, 27003 lugo, lugo, españa",43.040625,-7.571881
"pol. ind. o ceao 70, 27003 lugo, lugo, españa",43.0494964,-7.561074899999999
"pol. ind. o ceao 31, 27003 lugo, lugo, españa",43.0494964,-7.561074899999999
"c/ dos ferreiros 5, 27003 lugo, lugo, españa",43.00579,-7.555219999999999
"pol. ind. o ceao 116, 27003 lugo, lugo, españa",43.0494964,-7.561074899999999
"laverca 6, 27003 lugo, lugo, españa",43.0238683,-7.568789100000001
"pol. ind. o ceao 2, 27003 lugo, lugo, españa",43.0494964,-7.561074899999999
"Avenida da Coruña 156, 27003 lugo, lugo, españa",43.031865,-7.572329
"pol. ind. o ceao 34, 27003 lugo, lugo, españa",43.0494964,-7.561074899999999
"Avenida da Coruña 84, 27003 lugo, lugo, españa",43.031814,-7.57229
"Ronda da Muralla 79, 27003 lugo, lugo, españa",43.014739,-7.557412
"Ronda da Muralla 104, 27003 lugo, lugo, españa",43.014447,-7.559851
"Ronda da Muralla 89, 27003 lugo, lugo, españa",43.014851,-7.558251
"Avenida da Coruña 490, 27003 lugo, lugo, españa",43.032103,-7.572505
"Avenida da Coruña 57, 27003 lugo, lugo, españa",43.0167595,-7.560280799999999
"Avenida da Coruña 490, 27003 lugo, lugo, españa",43.032103,-7.572505
"Rúa Serra de Ancares 17, 27003 lugo, lugo, españa",43.0153937,-7.5580858
"Rúa Serra de Ancares 17, 27003 lugo, lugo, españa",43.0153937,-7.5580858
"galerias 21, 27003 lugo, lugo, españa",43.0097384,-7.5567582
"pol. ceao 17, 27003 lugo, lugo, españa",43.0097384,-7.5567582
"Rua Otero Pedrayo Profesor 35, 27003 lugo, lugo, españa",43.018802,-7.560241
"santo grial 82, 27003 lugo, lugo, españa",43.024363,-7.572513
"avenida carlos azcarraga 45, 27003 lugo, lugo, españa",43.0169561,-7.548333299999999
"Ronda da Muralla 58, 27003 lugo, lugo, españa",43.013447,-7.555373
"magnolia 68, 27003 lugo, lugo, españa",43.0277642,-7.570717600000001
"Ronda da Muralla 58, 27003 lugo, lugo, españa",43.013447,-7.555373
"Rúa de Miguel de Cervantes 34, 27003 lugo, lugo, españa",43.01438,-7.55268
"rua industria 93 pol. ceao, 27003 lugo, lugo, españa",43.044518,-7.562969
"pol. ind. o ceao 2, 27003 lugo, lugo, españa",43.0494964,-7.5610749
"Avenida de Benigno Rivera 54, 27003 lugo, lugo, españa",43.039747,-7.573061
"calle flor de malva 65, 27003 lugo, lugo, españa",43.0284898,-7.571742500000001
"Rúa do Cedro 13, 27003 lugo, lugo, españa",43.0254364,-7.5662957
"calle del rio narla 48, 27003 lugo, lugo, españa",43.023139,-7.559523
"Avenida da Coruña 82, 27003 lugo, lugo, españa",43.017269,-7.56046
"Rúa Túnel de Oural 10, 27003 lugo, lugo, españa",43.022784,-7.568897
"ctra. n-vi 152, 27003 lugo, lugo, españa",43.05451679999999,-7.596495999999999
"Avenida da Coruña 40, 27003 lugo, lugo, españa",43.015914,-7.559409
"tres marias 27, 27003 lugo, lugo, españa",43.0244993,-7.554228
"monte adairo 37, 27003 lugo, lugo, españa",43.023472,-7.550095
"calle rio sil 12, 27003 lugo, lugo, españa",43.016394,-7.556201
"Rúa de Miguel de Cervantes 34, 27003 lugo, lugo, españa",43.01438,-7.55268
"calle rio oribio 6, 27003 lugo, lugo, españa",43.0199162,-7.559803799999999
"rio sil 56, 27003 lugo, lugo, españa",43.019319,-7.557584
"pr. conde de fontao 11, 27003 lugo, lugo, españa",43.0144446,-7.551947900000001
"Avenida da Coruña 475, 27003 lugo, lugo, españa",43.030351,-7.571588
"Praza de Viana do Castelo 7, 27003 lugo, lugo, españa",43.02309,-7.566454
"salmon 8, 27003 lugo, lugo, españa",43.017788,-7.558045
"o comercio pol. ind. o ceao 138, 27003 lugo, lugo, españa",43.0494964,-7.561074899999999
"pol. ind. o ceao 26, 27003 lugo, lugo, españa",43.0494964,-7.561074899999999
"Ronda da Muralla 58, 27003 lugo, lugo, españa",43.013447,-7.555373
"rua de mar cantabrico 83, 27003 lugo, lugo, españa",43.0218705,-7.5711426
"pol. ind. o ceao s/n os canteiros, 27003 lugo, lugo, españa",43.0494964,-7.561074899999999
"Avenida de Benigno Rivera 23, 27003 lugo, lugo, españa",43.037331,-7.574017
"pol. ind. o ceao 106, 27003 lugo, lugo, españa",43.0494964,-7.561074899999999
"Rúa de Manuel Murguía 6, 27003 lugo, lugo, españa",43.018028,-7.557827
"Ronda da Muralla 58, 27003 lugo, lugo, españa",43.013447,-7.555373
"Avenida da Coruña 81, 27003 lugo, lugo, españa",43.017311,-7.560654
"Avenida da Coruña 81, 27003 lugo, lugo, españa",43.017311,-7.560654
"garaballa de arriba 9, 27003 lugo, lugo, españa",43.0333427,-7.563054299999999
"Avenida da Coruña 184, 27003 lugo, lugo, españa",43.020511,-7.563101
"a terra pol. ind. o ceao 96, 27003 lugo, lugo, españa",43.0494964,-7.561074899999999
"Rua Alcalde Ramiro Rueda Fern 22, 27003 lugo, lugo, españa",43.019131,-7.561229
"xian 8, 27003 lugo, lugo, españa",43.0097384,-7.5567582
"pol. sagrado corazon bl. 25, 27003 lugo, lugo, españa",43.0097384,-7.5567582
"rio sil 39, 27003 lugo, lugo, españa",43.017657,-7.557441
"rua rio sil 39, 27003 lugo, lugo, españa",43.017657,-7.557441
"Rúa da Industria 39, 27003 lugo, lugo, españa",43.047826,-7.572435
"rua salvia 1, 27003 lugo, lugo, españa",43.030439,-7.559752
"Ronda da Muralla 58, 27003 lugo, lugo, españa",43.013447,-7.555373
"Avenida da Coruña 32, 27003 lugo, lugo, españa",43.0157376,-7.5591278
"Rúa de Perpetuo Socorro 29, 27003 lugo, lugo, españa",43.0194826,-7.5605468
"Avenida da Coruña 84, 27003 lugo, lugo, españa",43.031814,-7.57229
"Avenida da Coruña 90, 27003 lugo, lugo, españa",43.017708,-7.560813
"Avenida da Coruña 90, 27003 lugo, lugo, españa",43.017708,-7.560813
"Avenida da Coruña 90, 27003 lugo, lugo, españa",43.017708,-7.560813
"Avenida da Coruña 104, 27003 lugo, lugo, españa",43.018073,-7.561109
"Avenida de Benigno Rivera 100, 27003 lugo, lugo, españa",43.043653,-7.570188
"rua mondonedo 47, 27003 lugo, lugo, españa",43.0157736,-7.5650811
"Rua Milagrosa 98, 27003 lugo, lugo, españa",43.02051,-7.567504
"pol. industrial ceao 72, 27003 lugo, lugo, españa",43.0097384,-7.5567582
"calle benigno rivera s/n poligono ceao acceso autovia, 27003 lugo, lugo, españa",43.0494964,-7.561074899999999
"Rúa da Agricultura 36, 27003 lugo, lugo, españa",43.048709,-7.573729
"poligono do ceao 19, 27003 lugo, lugo, españa",43.0494964,-7.561074899999999
"Avenida da Coruña 362, 27003 lugo, lugo, españa",43.027302,-7.568323
"poligono do ceao 125, 27003 lugo, lugo, españa",43.0494964,-7.561074899999999
"pol. ind. o ceao 4, 27003 lugo, lugo, españa",43.0494964,-7.561074899999999
"santo grial 82, 27003 lugo, lugo, españa",43.024363,-7.572513
"Avenida de Benigno Rivera 51, 27003 lugo, lugo, españa",43.039805,-7.57355
"poligono ceao 15, 27003 lugo, lugo, españa",43.0494964,-7.561074899999999
"Avenida da Coruña 21 5, 27003 lugo, lugo, españa",43.015315,-7.559368
"Avenida da Coruña 21 local 5, 27003 lugo, lugo, españa",43.01541,-7.55914
"a terra pol. ind. o ceao s/n, 27003 lugo, lugo, españa",43.0494964,-7.561074899999999
"Avenida da Coruña 248, 27003 lugo, lugo, españa",43.029522,-7.570143
"Avenida da Coruña 24, 27003 lugo, lugo, españa",43.031772,-7.572258
"avenida carlos azcarraga 34, 27003 lugo, lugo, españa",43.0161956,-7.548921699999999
"manuel becerra 4, 27003 lugo, lugo, españa",43.0162,-7.55928
"avenida carlos azcarraga 79, 27003 lugo, lugo, españa",43.0184247,-7.548080700000001
"pol. ind. o ceao 1, 27003 lugo, lugo, españa",43.0494964,-7.561074899999999
"rua alcalde luis ameijide 3, 27003 lugo, lugo, españa",43.0237449,-7.569878600000001
"pol. ind. o ceao 62, 27003 lugo, lugo, españa",43.0494964,-7.561074899999999
"Ronda da Muralla 81, 27003 lugo, lugo, españa",43.014876,-7.557628
"poligono ceao 38, 27003 lugo, lugo, españa",43.0494964,-7.561074899999999
"estr. a coruna 123, 27003 lugo, lugo, españa",43.0097384,-7.5567582
"os artesans pol. ind. o ceao 22, 27003 lugo, lugo, españa",43.0097384,-7.5567582
"Rúa da Industria 34, 27003 lugo, lugo, españa",43.047965,-7.574988
"pr. conde de fontao 4, 27003 lugo, lugo, españa",43.0150962,-7.552780599999999
"plaza conde de fontao 4, 27003 lugo, lugo, españa",43.0150962,-7.552780599999999
"Rua Otero Pedrayo Profesor 33, 27003 lugo, lugo, españa",43.01787,-7.56042
"a terra pol. ind. o ceao 1, 27003 lugo, lugo, españa",43.0494964,-7.561074899999999
"pol. ind. o ceao 4, 27003 lugo, lugo, españa",43.0494964,-7.5610749
"pol. ind. o ceao 92, 27003 lugo, lugo, españa",43.0494964,-7.561074899999999
"pol. ind. o ceao 106, 27003 lugo, lugo, españa",43.0494964,-7.5610749
"Rúa Pintor Luís Seoane 24, 27003 lugo, lugo, españa",43.017202,-7.560959
"Rúa Alexandre Bóveda 16, 27003 lugo, lugo, españa",43.020935,-7.5591
"calle magnolia 6, 27003 lugo, lugo, españa",43.0257588,-7.5708111
"Avenida de Benigno Rivera 60, 27003 lugo, lugo, españa",43.0405211,-7.5726181
"calle reisenor 6, 27003 lugo, lugo, españa",43.0289284,-7.5707024
"Avenida da Coruña 64, 27003 lugo, lugo, españa",43.016791,-7.560108
"Rúa do Conde 51, 27003 lugo, lugo, españa",43.0162977,-7.557794499999999
"Rúa Alexandre Bóveda 26, 27003 lugo, lugo, españa",43.021963,-7.558839
"as costureiras pol. ind. o ceao 16, 27003 lugo, lugo, españa",43.0097384,-7.5567582
"Avenida da Coruña 100, 27003 lugo, lugo, españa",43.017932,-7.560995
"Rúa de Perpetuo Socorro 5, 27003 lugo, lugo, españa",43.019623,-7.561929
"enppla. 12, 27003 lugo, lugo, españa",43.0097384,-7.5567582
"Avenida Legado Romano Paulo Fabio Máximo 50, 27003 lugo, lugo, españa",43.033147,-7.567278
"Avenida da Coruña 341, 27003 lugo, lugo, españa",43.025655,-7.567751
"Avenida da Coruña 195, 27003 lugo, lugo, españa",43.021015,-7.564043
"calle islas canarias 52, 27003 lugo, lugo, españa",43.024105,-7.563684
"Avenida da Coruña 369, 27003 lugo, lugo, españa",43.026396,-7.568345
"Avenida da Coruña 299, 27003 lugo, lugo, españa",43.02389,-7.566696
"Avenida da Coruña 49, 27003 lugo, lugo, españa",43.016389,-7.560126
"pol. ind. o ceao 51, 27003 lugo, lugo, españa",43.0494964,-7.561074899999999
"as leiteiras pol. ind. o ceao 6, 27003 lugo, lugo, españa",43.0494964,-7.561074899999999
"poligono ceao 6, 27003 lugo, lugo, españa",43.0494964,-7.561074899999999
"calle manuel maria 1, 27003 lugo, lugo, españa",43.02321,-7.566553
"calle san vicente de pias 11, 27003 lugo, lugo, españa",43.02169,-7.55998
"Rúa Monte Faro 173, 27003 lugo, lugo, españa",43.02809269999999,-7.5623569
"Rúa Angelo Colocci 27, 27003 lugo, lugo, españa",43.026739,-7.570025
"Rúa Irmáns Carro 6, 27003 lugo, lugo, españa",43.016621,-7.559576
"Rúa da Industria 45, 27003 lugo, lugo, españa",43.047397,-7.569654
"Avenida da Coruña 32, 27003 lugo, lugo, españa",43.0157376,-7.5591278
"Avenida da Coruña 54, 27003 lugo, lugo, españa",43.016301,-7.559698
"Rúa dos Carpinteiros 27, 27003 lugo, lugo, españa",43.043938,-7.563714
"garaballa de arriba 9, 27003 lugo, lugo, españa",43.0333427,-7.5630543
"pol. ind. o ceao 129, 27003 lugo, lugo, españa",43.0494964,-7.5610749
"pol. ind. o ceao 129, 27003 lugo, lugo, españa",43.0494964,-7.5610749
"rua das leiteiras 1 pol. o ceao, 27003 lugo, lugo, españa",43.05106199999999,-7.565091900000001
"rio sil 54, 27003 lugo, lugo, españa",43.019096,-7.557434799999999
"as leiteiras pol. ind. o ceao 9, 27003 lugo, lugo, españa",43.0494964,-7.561074899999999
"Avenida de Benigno Rivera 52, 27003 lugo, lugo, españa",43.039894,-7.573539
"Avenida de Benigno Rivera 9, 27003 lugo, lugo, españa",43.049034,-7.566751
"calle monte adairo 80, 27003 lugo, lugo, españa",43.02457709999999,-7.5491115
"avenida benigno rivera s/n poligono ceao salida / entrada autovia, 27003 lugo, lugo, españa",43.0494964,-7.561074899999999
"Rúa do Conde 24, 27003 lugo, lugo, españa",43.0157706,-7.557201999999999
"Avenida da Coruña 500, 27003 lugo, lugo, españa",43.03211,-7.57251
"pol. ceao 121, 27003 lugo, lugo, españa",43.0097384,-7.5567582
"Avenida da Coruña 39, 27003 lugo, lugo, españa",43.0162275,-7.5599955
"Rúa Alcalde Ramiro Rueda Fernández 18, 27003 lugo, lugo, españa",43.019131,-7.561229
"Rúa Mallorca 21, 27003 lugo, lugo, españa",43.019507,-7.56389
"Rúa Menorca 8, 27003 lugo, lugo, españa",43.019205,-7.562832
"pol. ind. o ceao 2, 27003 lugo, lugo, españa",43.0494964,-7.5610749
"pol. ind. o ceao 17, 27003 lugo, lugo, españa",43.0494964,-7.561074899999999
"Rúa Angelo Colocci 23, 27003 lugo, lugo, españa",43.026739,-7.570025
"rua rio sil 64, 27003 lugo, lugo, españa",43.019962,-7.558362
"e  4, 27003 lugo, lugo, españa",43.040073,-7.552862
"Rúa Serra de Ancares 84, 27003 lugo, lugo, españa",43.0180219,-7.559974400000001
"calle alta 34, 27003 lugo, lugo, españa",43.015132,-7.553256
"Avenida de Benigno Rivera 100, 27003 lugo, lugo, españa",43.043653,-7.570188
"pol. ind. o ceao s/n as panadeiras, 27003 lugo, lugo, españa",43.0494964,-7.561074899999999
"estr. a coruna 16, 27003 lugo, lugo, españa",43.0097384,-7.5567582
"calle concepcion arenal 16, 27003 lugo, lugo, españa",43.015542,-7.560165
"Rúa do Franco 14, 27003 lugo, lugo, españa",43.025064,-7.565683
